$GPRMC,130236,A,3507.461,N,07701.804,W,000.0,0,050505,0,W*73
$SDDPT,3.0,0.0*56
$SDMTW,19.6,C*08
$GPRMC,130240,A,3507.458,N,07701.804,W,000.0,0,050505,0,W*73
$SDDPT,3.3,0.0*56
$SDMTW,19.6,C*08
$GPRMC,130243,A,3507.456,N,07701.805,W,000.0,0,050505,0,W*73
$SDDPT,3.0,0.0*56
$SDMTW,19.6,C*08
$GPRMC,130247,A,3507.453,N,07701.805,W,000.0,0,050505,0,W*73
$SDDPT,3.2,0.0*56
$SDMTW,19.7,C*08
$GPRMC,130251,A,3507.450,N,07701.806,W,000.0,0,050505,0,W*73
$SDDPT,2.8,0.0*56
$SDMTW,19.7,C*08
$GPRMC,130255,A,3507.448,N,07701.807,W,000.0,0,050505,0,W*73
$SDDPT,3.0,0.0*56
$SDMTW,19.7,C*08
$GPRMC,130259,A,3507.445,N,07701.809,W,000.0,0,050505,0,W*73
$SDDPT,3.0,0.0*56
$SDMTW,19.6,C*08
$GPRMC,130303,A,3507.442,N,07701.810,W,000.0,0,050505,0,W*73
$SDDPT,3.0,0.0*56
$SDMTW,19.7,C*08
$GPRMC,130307,A,3507.439,N,07701.812,W,000.0,0,050505,0,W*73
$SDDPT,2.9,0.0*56
$SDMTW,19.7,C*08
$GPRMC,130311,A,3507.437,N,07701.813,W,000.0,0,050505,0,W*73
$SDDPT,3.2,0.0*56
$SDMTW,19.7,C*08
$GPRMC,130315,A,3507.434,N,07701.815,W,000.0,0,050505,0,W*73
$SDDPT,3.0,0.0*56
$SDMTW,19.7,C*08
$GPRMC,130319,A,3507.431,N,07701.816,W,000.0,0,050505,0,W*73
$SDDPT,3.0,0.0*56
$SDMTW,19.7,C*08
$GPRMC,130323,A,3507.428,N,07701.818,W,000.0,0,050505,0,W*73
$SDDPT,2.9,0.0*56
$SDMTW,19.7,C*08
$GPRMC,130327,A,3507.425,N,07701.819,W,000.0,0,050505,0,W*73
$SDDPT,2.9,0.0*56
$SDMTW,19.7,C*08
$GPRMC,130331,A,3507.422,N,07701.821,W,000.0,0,050505,0,W*73
$SDDPT,2.9,0.0*56
$SDMTW,19.6,C*08
$GPRMC,130335,A,3507.420,N,07701.822,W,000.0,0,050505,0,W*73
$SDDPT,2.9,0.0*56
$SDMTW,19.7,C*08
$GPRMC,130339,A,3507.417,N,07701.824,W,000.0,0,050505,0,W*73
$SDDPT,2.9,0.0*56
$SDMTW,19.6,C*08
$GPRMC,130343,A,3507.414,N,07701.825,W,000.0,0,050505,0,W*73
$SDDPT,2.9,0.0*56
$SDMTW,19.7,C*08
$GPRMC,130347,A,3507.411,N,07701.827,W,000.0,0,050505,0,W*73
$SDDPT,3.1,0.0*56
$SDMTW,19.7,C*08
$GPRMC,130351,A,3507.408,N,07701.828,W,000.0,0,050505,0,W*73
$SDDPT,2.8,0.0*56
$SDMTW,19.6,C*08
$GPRMC,130355,A,3507.405,N,07701.830,W,000.0,0,050505,0,W*73
$SDDPT,2.7,0.0*56
$SDMTW,19.7,C*08
$GPRMC,130359,A,3507.403,N,07701.831,W,000.0,0,050505,0,W*73
$SDDPT,2.8,0.0*56
$SDMTW,19.7,C*08
$GPRMC,130403,A,3507.400,N,07701.833,W,000.0,0,050505,0,W*73
$SDDPT,2.9,0.0*56
$SDMTW,19.7,C*08
$GPRMC,130407,A,3507.397,N,07701.834,W,000.0,0,050505,0,W*73
$SDDPT,2.8,0.0*56
$SDMTW,19.6,C*08
$GPRMC,130411,A,3507.394,N,07701.836,W,000.0,0,050505,0,W*73
$SDDPT,2.7,0.0*56
$SDMTW,19.6,C*08
$GPRMC,130415,A,3507.391,N,07701.838,W,000.0,0,050505,0,W*73
$SDDPT,2.7,0.0*56
$SDMTW,19.7,C*08
$GPRMC,130419,A,3507.389,N,07701.839,W,000.0,0,050505,0,W*73
$SDDPT,2.7,0.0*56
$SDMTW,19.7,C*08
$GPRMC,130423,A,3507.386,N,07701.841,W,000.0,0,050505,0,W*73
$SDDPT,2.7,0.0*56
$SDMTW,19.7,C*08
$GPRMC,130427,A,3507.383,N,07701.842,W,000.0,0,050505,0,W*73
$SDDPT,2.7,0.0*56
$SDMTW,19.6,C*08
$GPRMC,130431,A,3507.380,N,07701.844,W,000.0,0,050505,0,W*73
$SDDPT,2.6,0.0*56
$SDMTW,19.7,C*08
$GPRMC,130435,A,3507.377,N,07701.845,W,000.0,0,050505,0,W*73
$SDDPT,2.8,0.0*56
$SDMTW,19.7,C*08
$GPRMC,130439,A,3507.374,N,07701.847,W,000.0,0,050505,0,W*73
$SDDPT,2.8,0.0*56
$SDMTW,19.7,C*08
$GPRMC,130443,A,3507.372,N,07701.848,W,000.0,0,050505,0,W*73
$SDDPT,2.8,0.0*56
$SDMTW,19.7,C*08
$GPRMC,130447,A,3507.369,N,07701.850,W,000.0,0,050505,0,W*73
$SDDPT,2.8,0.0*56
$SDMTW,19.7,C*08
$GPRMC,130451,A,3507.366,N,07701.851,W,000.0,0,050505,0,W*73
$SDDPT,2.8,0.0*56
$SDMTW,19.7,C*08
$GPRMC,130455,A,3507.363,N,07701.853,W,000.0,0,050505,0,W*73
$SDDPT,3.1,0.0*56
$SDMTW,19.7,C*08
$GPRMC,130459,A,3507.360,N,07701.854,W,000.0,0,050505,0,W*73
$SDDPT,2.8,0.0*56
$SDMTW,19.7,C*08
$GPRMC,130503,A,3507.357,N,07701.856,W,000.0,0,050505,0,W*73
$SDDPT,2.8,0.0*56
$SDMTW,19.7,C*08
$GPRMC,130507,A,3507.355,N,07701.857,W,000.0,0,050505,0,W*73
$SDDPT,2.6,0.0*56
$SDMTW,19.7,C*08
$GPRMC,130511,A,3507.352,N,07701.859,W,000.0,0,050505,0,W*73
$SDDPT,2.7,0.0*56
$SDMTW,19.7,C*08
$GPRMC,130515,A,3507.349,N,07701.860,W,000.0,0,050505,0,W*73
$SDDPT,2.7,0.0*56
$SDMTW,19.7,C*08
$GPRMC,130519,A,3507.346,N,07701.862,W,000.0,0,050505,0,W*73
$SDDPT,2.7,0.0*56
$SDMTW,19.7,C*08
$GPRMC,130523,A,3507.343,N,07701.863,W,000.0,0,050505,0,W*73
$SDDPT,2.8,0.0*56
$SDMTW,19.6,C*08
$GPRMC,130528,A,3507.340,N,07701.865,W,000.0,0,050505,0,W*73
$SDDPT,2.8,0.0*56
$SDMTW,19.6,C*08
$GPRMC,130532,A,3507.338,N,07701.866,W,000.0,0,050505,0,W*73
$SDDPT,2.8,0.0*56
$SDMTW,19.7,C*08
$GPRMC,130536,A,3507.335,N,07701.868,W,000.0,0,050505,0,W*73
$SDDPT,2.8,0.0*56
$SDMTW,19.7,C*08
$GPRMC,130540,A,3507.332,N,07701.869,W,000.0,0,050505,0,W*73
$SDDPT,2.8,0.0*56
$SDMTW,19.7,C*08
$GPRMC,130544,A,3507.329,N,07701.871,W,000.0,0,050505,0,W*73
$SDDPT,2.8,0.0*56
$SDMTW,19.7,C*08
$GPRMC,130548,A,3507.326,N,07701.873,W,000.0,0,050505,0,W*73
$SDDPT,2.8,0.0*56
$SDMTW,19.7,C*08
$GPRMC,130552,A,3507.323,N,07701.874,W,000.0,0,050505,0,W*73
$SDDPT,2.8,0.0*56
$SDMTW,19.7,C*08
$GPRMC,130556,A,3507.321,N,07701.876,W,000.0,0,050505,0,W*73
$SDDPT,2.6,0.0*56
$SDMTW,19.6,C*08
$GPRMC,130600,A,3507.318,N,07701.877,W,000.0,0,050505,0,W*73
$SDDPT,2.7,0.0*56
$SDMTW,19.7,C*08
$GPRMC,130604,A,3507.315,N,07701.879,W,000.0,0,050505,0,W*73
$SDDPT,2.6,0.0*56
$SDMTW,19.6,C*08
$GPRMC,130608,A,3507.312,N,07701.880,W,000.0,0,050505,0,W*73
$SDDPT,2.7,0.0*56
$SDMTW,19.7,C*08
$GPRMC,130612,A,3507.309,N,07701.882,W,000.0,0,050505,0,W*73
$SDDPT,2.6,0.0*56
$SDMTW,19.7,C*08
$GPRMC,130616,A,3507.306,N,07701.883,W,000.0,0,050505,0,W*73
$SDDPT,2.8,0.0*56
$SDMTW,19.7,C*08
$GPRMC,130620,A,3507.304,N,07701.885,W,000.0,0,050505,0,W*73
$SDDPT,2.8,0.0*56
$SDMTW,19.7,C*08
$GPRMC,130624,A,3507.301,N,07701.886,W,000.0,0,050505,0,W*73
$SDDPT,2.8,0.0*56
$SDMTW,19.6,C*08
$GPRMC,130628,A,3507.298,N,07701.888,W,000.0,0,050505,0,W*73
$SDDPT,2.8,0.0*56
$SDMTW,19.6,C*08
$GPRMC,130632,A,3507.295,N,07701.889,W,000.0,0,050505,0,W*73
$SDDPT,2.7,0.0*56
$SDMTW,19.7,C*08
$GPRMC,130636,A,3507.292,N,07701.891,W,000.0,0,050505,0,W*73
$SDDPT,2.8,0.0*56
$SDMTW,19.7,C*08
$GPRMC,130640,A,3507.289,N,07701.892,W,000.0,0,050505,0,W*73
$SDDPT,2.8,0.0*56
$SDMTW,19.6,C*08
$GPRMC,130644,A,3507.287,N,07701.894,W,000.0,0,050505,0,W*73
$SDDPT,2.7,0.0*56
$SDMTW,19.7,C*08
$GPRMC,130648,A,3507.284,N,07701.895,W,000.0,0,050505,0,W*73
$SDDPT,2.8,0.0*56
$SDMTW,19.7,C*08
$GPRMC,130652,A,3507.281,N,07701.897,W,000.0,0,050505,0,W*73
$SDDPT,2.7,0.0*56
$SDMTW,19.7,C*08
$GPRMC,130656,A,3507.278,N,07701.898,W,000.0,0,050505,0,W*73
$SDDPT,2.7,0.0*56
$SDMTW,19.7,C*08
$GPRMC,130700,A,3507.275,N,07701.900,W,000.0,0,050505,0,W*73
$SDDPT,2.8,0.0*56
$SDMTW,19.7,C*08
$GPRMC,130704,A,3507.272,N,07701.902,W,000.0,0,050505,0,W*73
$SDDPT,2.7,0.0*56
$SDMTW,19.7,C*08
$GPRMC,130708,A,3507.270,N,07701.903,W,000.0,0,050505,0,W*73
$SDDPT,2.8,0.0*56
$SDMTW,19.7,C*08
$GPRMC,130712,A,3507.267,N,07701.905,W,000.0,0,050505,0,W*73
$SDDPT,2.6,0.0*56
$SDMTW,19.7,C*08
$GPRMC,130716,A,3507.264,N,07701.906,W,000.0,0,050505,0,W*73
$SDDPT,2.7,0.0*56
$SDMTW,19.7,C*08
$GPRMC,130720,A,3507.261,N,07701.908,W,000.0,0,050505,0,W*73
$SDDPT,2.6,0.0*56
$SDMTW,19.7,C*08
$GPRMC,130724,A,3507.258,N,07701.909,W,000.0,0,050505,0,W*73
$SDDPT,2.8,0.0*56
$SDMTW,19.7,C*08
$GPRMC,130728,A,3507.255,N,07701.911,W,000.0,0,050505,0,W*73
$SDDPT,2.7,0.0*56
$SDMTW,19.7,C*08
$GPRMC,130732,A,3507.253,N,07701.912,W,000.0,0,050505,0,W*73
$SDDPT,2.8,0.0*56
$SDMTW,19.7,C*08
$GPRMC,130736,A,3507.250,N,07701.914,W,000.0,0,050505,0,W*73
$SDDPT,2.7,0.0*56
$SDMTW,19.7,C*08
$GPRMC,130741,A,3507.249,N,07701.913,W,000.0,0,050505,0,W*73
$SDDPT,2.7,0.0*56
$SDMTW,19.6,C*08
$GPRMC,130745,A,3507.246,N,07701.915,W,000.0,0,050505,0,W*73
$SDDPT,2.8,0.0*56
$SDMTW,19.7,C*08
$GPRMC,130749,A,3507.243,N,07701.917,W,000.0,0,050505,0,W*73
$SDDPT,2.8,0.0*56
$SDMTW,19.7,C*08
$GPRMC,130753,A,3507.240,N,07701.917,W,000.0,0,050505,0,W*73
$SDDPT,2.8,0.0*56
$SDMTW,19.7,C*08
$GPRMC,130757,A,3507.238,N,07701.919,W,000.0,0,050505,0,W*73
$SDDPT,2.7,0.0*56
$SDMTW,19.7,C*08
$GPRMC,130801,A,3507.235,N,07701.920,W,000.0,0,050505,0,W*73
$SDDPT,2.7,0.0*56
$SDMTW,19.7,C*08
$GPRMC,130805,A,3507.232,N,07701.922,W,000.0,0,050505,0,W*73
$SDDPT,2.8,0.0*56
$SDMTW,19.6,C*08
$GPRMC,130809,A,3507.228,N,07701.923,W,000.0,0,050505,0,W*73
$SDDPT,2.7,0.0*56
$SDMTW,19.7,C*08
$GPRMC,130813,A,3507.225,N,07701.924,W,000.0,0,050505,0,W*73
$SDDPT,2.7,0.0*56
$SDMTW,19.7,C*08
$GPRMC,130817,A,3507.222,N,07701.926,W,000.0,0,050505,0,W*73
$SDDPT,2.6,0.0*56
$SDMTW,19.7,C*08
$GPRMC,130821,A,3507.220,N,07701.928,W,000.0,0,050505,0,W*73
$SDDPT,2.7,0.0*56
$SDMTW,19.7,C*08
$GPRMC,130825,A,3507.217,N,07701.929,W,000.0,0,050505,0,W*73
$SDDPT,2.7,0.0*56
$SDMTW,19.6,C*08
$GPRMC,130829,A,3507.214,N,07701.930,W,000.0,0,050505,0,W*73
$SDDPT,2.7,0.0*56
$SDMTW,19.7,C*08
$GPRMC,130833,A,3507.212,N,07701.931,W,000.0,0,050505,0,W*73
$SDDPT,2.7,0.0*56
$SDMTW,19.7,C*08
$GPRMC,130837,A,3507.209,N,07701.932,W,000.0,0,050505,0,W*73
$SDDPT,2.8,0.0*56
$SDMTW,19.7,C*08
$GPRMC,130841,A,3507.206,N,07701.934,W,000.0,0,050505,0,W*73
$SDDPT,2.7,0.0*56
$SDMTW,19.6,C*08
$GPRMC,130845,A,3507.203,N,07701.935,W,000.0,0,050505,0,W*73
$SDDPT,2.9,0.0*56
$SDMTW,19.7,C*08
$GPRMC,130849,A,3507.200,N,07701.935,W,000.0,0,050505,0,W*73
$SDDPT,2.8,0.0*56
$SDMTW,19.6,C*08
$GPRMC,130853,A,3507.197,N,07701.936,W,000.0,0,050505,0,W*73
$SDDPT,2.8,0.0*56
$SDMTW,19.7,C*08
$GPRMC,130857,A,3507.195,N,07701.936,W,000.0,0,050505,0,W*73
$SDDPT,2.8,0.0*56
$SDMTW,19.7,C*08
$GPRMC,130901,A,3507.192,N,07701.938,W,000.0,0,050505,0,W*73
$SDDPT,2.7,0.0*56
$SDMTW,19.6,C*08
$GPRMC,130905,A,3507.189,N,07701.939,W,000.0,0,050505,0,W*73
$SDDPT,2.8,0.0*56
$SDMTW,19.7,C*08
$GPRMC,130909,A,3507.186,N,07701.941,W,000.0,0,050505,0,W*73
$SDDPT,2.7,0.0*56
$SDMTW,19.7,C*08
$GPRMC,130913,A,3507.184,N,07701.941,W,000.0,0,050505,0,W*73
$SDDPT,3.6,0.0*56
$SDMTW,19.7,C*08
$GPRMC,130917,A,3507.180,N,07701.942,W,000.0,0,050505,0,W*73
$SDDPT,2.7,0.0*56
$SDMTW,19.7,C*08
$GPRMC,130921,A,3507.177,N,07701.944,W,000.0,0,050505,0,W*73
$SDDPT,2.6,0.0*56
$SDMTW,19.6,C*08
$GPRMC,130925,A,3507.175,N,07701.945,W,000.0,0,050505,0,W*73
$SDDPT,2.7,0.0*56
$SDMTW,19.6,C*08
$GPRMC,130929,A,3507.172,N,07701.946,W,000.0,0,050505,0,W*73
$SDDPT,2.8,0.0*56
$SDMTW,19.6,C*08
$GPRMC,130933,A,3507.170,N,07701.948,W,000.0,0,050505,0,W*73
$SDDPT,3.0,0.0*56
$SDMTW,19.7,C*08
$GPRMC,130937,A,3507.167,N,07701.949,W,000.0,0,050505,0,W*73
$SDDPT,3.1,0.0*56
$SDMTW,19.6,C*08
$GPRMC,130941,A,3507.164,N,07701.951,W,000.0,0,050505,0,W*73
$SDDPT,2.7,0.0*56
$SDMTW,19.6,C*08
$GPRMC,130945,A,3507.161,N,07701.952,W,000.0,0,050505,0,W*73
$SDDPT,3.1,0.0*56
$SDMTW,19.6,C*08
$GPRMC,130949,A,3507.159,N,07701.954,W,000.0,0,050505,0,W*73
$SDDPT,2.8,0.0*56
$SDMTW,19.6,C*08
$GPRMC,130953,A,3507.158,N,07701.954,W,000.0,0,050505,0,W*73
$SDDPT,2.8,0.0*56
$SDMTW,19.6,C*08
$GPRMC,130957,A,3507.155,N,07701.954,W,000.0,0,050505,0,W*73
$SDDPT,2.8,0.0*56
$SDMTW,19.6,C*08
$GPRMC,131001,A,3507.152,N,07701.955,W,000.0,0,050505,0,W*73
$SDDPT,2.8,0.0*56
$SDMTW,19.6,C*08
$GPRMC,131005,A,3507.150,N,07701.955,W,000.0,0,050505,0,W*73
$SDDPT,2.8,0.0*56
$SDMTW,19.6,C*08
$GPRMC,131009,A,3507.147,N,07701.956,W,000.0,0,050505,0,W*73
$SDDPT,2.8,0.0*56
$SDMTW,19.6,C*08
$GPRMC,131013,A,3507.144,N,07701.956,W,000.0,0,050505,0,W*73
$SDDPT,2.8,0.0*56
$SDMTW,19.6,C*08
$GPRMC,131017,A,3507.141,N,07701.956,W,000.0,0,050505,0,W*73
$SDDPT,3.0,0.0*56
$SDMTW,19.6,C*08
$GPRMC,131021,A,3507.139,N,07701.957,W,000.0,0,050505,0,W*73
$SDDPT,2.6,0.0*56
$SDMTW,19.6,C*08
$GPRMC,131025,A,3507.136,N,07701.957,W,000.0,0,050505,0,W*73
$SDDPT,2.8,0.0*56
$SDMTW,19.6,C*08
$GPRMC,131029,A,3507.133,N,07701.958,W,000.0,0,050505,0,W*73
$SDDPT,2.8,0.0*56
$SDMTW,19.6,C*08
$GPRMC,131033,A,3507.130,N,07701.958,W,000.0,0,050505,0,W*73
$SDDPT,2.9,0.0*56
$SDMTW,19.6,C*08
$GPRMC,131037,A,3507.128,N,07701.958,W,000.0,0,050505,0,W*73
$SDDPT,2.8,0.0*56
$SDMTW,19.6,C*08
$GPRMC,131041,A,3507.125,N,07701.959,W,000.0,0,050505,0,W*73
$SDDPT,2.8,0.0*56
$SDMTW,19.6,C*08
$GPRMC,131045,A,3507.122,N,07701.959,W,000.0,0,050505,0,W*73
$SDDPT,2.8,0.0*56
$SDMTW,19.6,C*08
$GPRMC,131049,A,3507.119,N,07701.960,W,000.0,0,050505,0,W*73
$SDDPT,2.8,0.0*56
$SDMTW,19.6,C*08
$GPRMC,131053,A,3507.116,N,07701.960,W,000.0,0,050505,0,W*73
$SDDPT,2.8,0.0*56
$SDMTW,19.6,C*08
$GPRMC,131057,A,3507.114,N,07701.960,W,000.0,0,050505,0,W*73
$SDDPT,2.8,0.0*56
$SDMTW,19.6,C*08
$GPRMC,131101,A,3507.111,N,07701.961,W,000.0,0,050505,0,W*73
$SDDPT,2.8,0.0*56
$SDMTW,19.6,C*08
$GPRMC,131105,A,3507.108,N,07701.961,W,000.0,0,050505,0,W*73
$SDDPT,2.8,0.0*56
$SDMTW,19.5,C*08
$GPRMC,131109,A,3507.105,N,07701.962,W,000.0,0,050505,0,W*73
$SDDPT,2.6,0.0*56
$SDMTW,19.6,C*08
$GPRMC,131113,A,3507.103,N,07701.962,W,000.0,0,050505,0,W*73
$SDDPT,2.6,0.0*56
$SDMTW,19.5,C*08
$GPRMC,131117,A,3507.100,N,07701.962,W,000.0,0,050505,0,W*73
$SDDPT,2.7,0.0*56
$SDMTW,19.6,C*08
$GPRMC,131121,A,3507.097,N,07701.963,W,000.0,0,050505,0,W*73
$SDDPT,2.9,0.0*56
$SDMTW,19.6,C*08
$GPRMC,131125,A,3507.094,N,07701.963,W,000.0,0,050505,0,W*73
$SDDPT,2.7,0.0*56
$SDMTW,19.6,C*08
$GPRMC,131129,A,3507.091,N,07701.964,W,000.0,0,050505,0,W*73
$SDDPT,2.7,0.0*56
$SDMTW,19.6,C*08
$GPRMC,131134,A,3507.089,N,07701.964,W,000.0,0,050505,0,W*73
$SDDPT,2.7,0.0*56
$SDMTW,19.5,C*08
$GPRMC,131138,A,3507.086,N,07701.965,W,000.0,0,050505,0,W*73
$SDDPT,2.7,0.0*56
$SDMTW,19.5,C*08
$GPRMC,131142,A,3507.083,N,07701.965,W,000.0,0,050505,0,W*73
$SDDPT,2.7,0.0*56
$SDMTW,19.5,C*08
$GPRMC,131146,A,3507.080,N,07701.965,W,000.0,0,050505,0,W*73
$SDDPT,2.7,0.0*56
$SDMTW,19.5,C*08
$GPRMC,131150,A,3507.078,N,07701.966,W,000.0,0,050505,0,W*73
$SDDPT,2.6,0.0*56
$SDMTW,19.5,C*08
$GPRMC,131154,A,3507.075,N,07701.966,W,000.0,0,050505,0,W*73
$SDDPT,2.7,0.0*56
$SDMTW,19.5,C*08
$GPRMC,131158,A,3507.072,N,07701.967,W,000.0,0,050505,0,W*73
$SDDPT,2.7,0.0*56
$SDMTW,19.5,C*08
$GPRMC,131202,A,3507.069,N,07701.967,W,000.0,0,050505,0,W*73
$SDDPT,2.7,0.0*56
$SDMTW,19.6,C*08
$GPRMC,131206,A,3507.067,N,07701.967,W,000.0,0,050505,0,W*73
$SDDPT,2.7,0.0*56
$SDMTW,19.6,C*08
$GPRMC,131210,A,3507.064,N,07701.968,W,000.0,0,050505,0,W*73
$SDDPT,2.7,0.0*56
$SDMTW,19.5,C*08
$GPRMC,131214,A,3507.061,N,07701.968,W,000.0,0,050505,0,W*73
$SDDPT,2.7,0.0*56
$SDMTW,19.5,C*08
$GPRMC,131218,A,3507.058,N,07701.969,W,000.0,0,050505,0,W*73
$SDDPT,2.7,0.0*56
$SDMTW,19.5,C*08
$GPRMC,131222,A,3507.055,N,07701.969,W,000.0,0,050505,0,W*73
$SDDPT,2.7,0.0*56
$SDMTW,19.5,C*08
$GPRMC,131226,A,3507.053,N,07701.969,W,000.0,0,050505,0,W*73
$SDDPT,2.7,0.0*56
$SDMTW,19.5,C*08
$GPRMC,131230,A,3507.050,N,07701.970,W,000.0,0,050505,0,W*73
$SDDPT,2.7,0.0*56
$SDMTW,19.5,C*08
$GPRMC,131234,A,3507.047,N,07701.970,W,000.0,0,050505,0,W*73
$SDDPT,2.5,0.0*56
$SDMTW,19.5,C*08
$GPRMC,131238,A,3507.044,N,07701.971,W,000.0,0,050505,0,W*73
$SDDPT,2.5,0.0*56
$SDMTW,19.5,C*08
$GPRMC,131242,A,3507.042,N,07701.971,W,000.0,0,050505,0,W*73
$SDDPT,2.7,0.0*56
$SDMTW,19.5,C*08
$GPRMC,131246,A,3507.039,N,07701.971,W,000.0,0,050505,0,W*73
$SDDPT,2.8,0.0*56
$SDMTW,19.5,C*08
$GPRMC,131250,A,3507.036,N,07701.972,W,000.0,0,050505,0,W*73
$SDDPT,2.7,0.0*56
$SDMTW,19.5,C*08
$GPRMC,131254,A,3507.033,N,07701.972,W,000.0,0,050505,0,W*73
$SDDPT,2.6,0.0*56
$SDMTW,19.5,C*08
$GPRMC,131258,A,3507.031,N,07701.973,W,000.0,0,050505,0,W*73
$SDDPT,3.0,0.0*56
$SDMTW,19.5,C*08
$GPRMC,131302,A,3507.028,N,07701.973,W,000.0,0,050505,0,W*73
$SDDPT,2.7,0.0*56
$SDMTW,19.5,C*08
$GPRMC,131306,A,3507.025,N,07701.973,W,000.0,0,050505,0,W*73
$SDDPT,2.7,0.0*56
$SDMTW,19.5,C*08
$GPRMC,131310,A,3507.022,N,07701.974,W,000.0,0,050505,0,W*73
$SDDPT,2.9,0.0*56
$SDMTW,19.5,C*08
$GPRMC,131314,A,3507.019,N,07701.974,W,000.0,0,050505,0,W*73
$SDDPT,2.7,0.0*56
$SDMTW,19.5,C*08
$GPRMC,131318,A,3507.017,N,07701.975,W,000.0,0,050505,0,W*73
$SDDPT,2.7,0.0*56
$SDMTW,19.5,C*08
$GPRMC,131322,A,3507.014,N,07701.975,W,000.0,0,050505,0,W*73
$SDDPT,2.7,0.0*56
$SDMTW,19.5,C*08
$GPRMC,131326,A,3507.011,N,07701.975,W,000.0,0,050505,0,W*73
$SDDPT,2.6,0.0*56
$SDMTW,19.5,C*08
$GPRMC,131330,A,3507.008,N,07701.976,W,000.0,0,050505,0,W*73
$SDDPT,2.6,0.0*56
$SDMTW,19.5,C*08
$GPRMC,131334,A,3507.006,N,07701.976,W,000.0,0,050505,0,W*73
$SDDPT,2.6,0.0*56
$SDMTW,19.4,C*08
$GPRMC,131338,A,3507.003,N,07701.977,W,000.0,0,050505,0,W*73
$SDDPT,2.6,0.0*56
$SDMTW,19.5,C*08
$GPRMC,131342,A,3507.000,N,07701.977,W,000.0,0,050505,0,W*73
$SDDPT,2.7,0.0*56
$SDMTW,19.5,C*08
$GPRMC,131346,A,3506.997,N,07701.977,W,000.0,0,050505,0,W*73
$SDDPT,2.6,0.0*56
$SDMTW,19.5,C*08
$GPRMC,131350,A,3506.994,N,07701.978,W,000.0,0,050505,0,W*73
$SDDPT,2.4,0.0*56
$SDMTW,19.5,C*08
$GPRMC,131354,A,3506.992,N,07701.978,W,000.0,0,050505,0,W*73
$SDDPT,2.7,0.0*56
$SDMTW,19.5,C*08
$GPRMC,131358,A,3506.989,N,07701.979,W,000.0,0,050505,0,W*73
$SDDPT,2.4,0.0*56
$SDMTW,19.5,C*08
$GPRMC,131402,A,3506.986,N,07701.979,W,000.0,0,050505,0,W*73
$SDDPT,2.4,0.0*56
$SDMTW,19.5,C*08
$GPRMC,131406,A,3506.983,N,07701.979,W,000.0,0,050505,0,W*73
$SDDPT,2.3,0.0*56
$SDMTW,19.5,C*08
$GPRMC,131410,A,3506.981,N,07701.980,W,000.0,0,050505,0,W*73
$SDDPT,2.4,0.0*56
$SDMTW,19.5,C*08
$GPRMC,131414,A,3506.978,N,07701.980,W,000.0,0,050505,0,W*73
$SDDPT,2.4,0.0*56
$SDMTW,19.5,C*08
$GPRMC,131418,A,3506.975,N,07701.981,W,000.0,0,050505,0,W*73
$SDDPT,2.4,0.0*56
$SDMTW,19.5,C*08
$GPRMC,131422,A,3506.972,N,07701.981,W,000.0,0,050505,0,W*73
$SDDPT,2.4,0.0*56
$SDMTW,19.5,C*08
$GPRMC,131426,A,3506.969,N,07701.981,W,000.0,0,050505,0,W*73
$SDDPT,2.5,0.0*56
$SDMTW,19.5,C*08
$GPRMC,131430,A,3506.967,N,07701.982,W,000.0,0,050505,0,W*73
$SDDPT,2.3,0.0*56
$SDMTW,19.5,C*08
$GPRMC,131434,A,3506.964,N,07701.982,W,000.0,0,050505,0,W*73
$SDDPT,2.4,0.0*56
$SDMTW,19.5,C*08
$GPRMC,131438,A,3506.961,N,07701.983,W,000.0,0,050505,0,W*73
$SDDPT,3.5,0.0*56
$SDMTW,19.5,C*08
$GPRMC,131443,A,3506.958,N,07701.983,W,000.0,0,050505,0,W*73
$SDDPT,2.5,0.0*56
$SDMTW,19.5,C*08
$GPRMC,131447,A,3506.956,N,07701.984,W,000.0,0,050505,0,W*73
$SDDPT,2.6,0.0*56
$SDMTW,19.5,C*08
$GPRMC,131451,A,3506.953,N,07701.984,W,000.0,0,050505,0,W*73
$SDDPT,2.4,0.0*56
$SDMTW,19.5,C*08
$GPRMC,131455,A,3506.950,N,07701.984,W,000.0,0,050505,0,W*73
$SDDPT,2.4,0.0*56
$SDMTW,19.5,C*08
$GPRMC,131459,A,3506.947,N,07701.985,W,000.0,0,050505,0,W*73
$SDDPT,2.7,0.0*56
$SDMTW,19.5,C*08
$GPRMC,131503,A,3506.945,N,07701.985,W,000.0,0,050505,0,W*73
$SDDPT,2.5,0.0*56
$SDMTW,19.5,C*08
$GPRMC,131507,A,3506.942,N,07701.986,W,000.0,0,050505,0,W*73
$SDDPT,2.5,0.0*56
$SDMTW,19.5,C*08
$GPRMC,131511,A,3506.939,N,07701.986,W,000.0,0,050505,0,W*73
$SDDPT,2.6,0.0*56
$SDMTW,19.5,C*08
$GPRMC,131515,A,3506.936,N,07701.986,W,000.0,0,050505,0,W*73
$SDDPT,2.6,0.0*56
$SDMTW,19.5,C*08
$GPRMC,131519,A,3506.933,N,07701.987,W,000.0,0,050505,0,W*73
$SDDPT,2.6,0.0*56
$SDMTW,19.5,C*08
$GPRMC,131523,A,3506.931,N,07701.987,W,000.0,0,050505,0,W*73
$SDDPT,3.0,0.0*56
$SDMTW,19.5,C*08
$GPRMC,131527,A,3506.928,N,07701.988,W,000.0,0,050505,0,W*73
$SDDPT,2.7,0.0*56
$SDMTW,19.5,C*08
$GPRMC,131538,A,3506.925,N,07701.988,W,000.0,0,050505,0,W*73
$SDDPT,2.7,0.0*56
$SDMTW,19.5,C*08
$GPRMC,131542,A,3506.922,N,07701.988,W,000.0,0,050505,0,W*73
$SDDPT,2.7,0.0*56
$SDMTW,19.5,C*08
$GPRMC,131546,A,3506.920,N,07701.989,W,000.0,0,050505,0,W*73
$SDDPT,2.7,0.0*56
$SDMTW,19.5,C*08
$GPRMC,131550,A,3506.917,N,07701.989,W,000.0,0,050505,0,W*73
$SDDPT,2.7,0.0*56
$SDMTW,19.4,C*08
$GPRMC,131554,A,3506.914,N,07701.990,W,000.0,0,050505,0,W*73
$SDDPT,2.9,0.0*56
$SDMTW,19.5,C*08
$GPRMC,131558,A,3506.911,N,07701.990,W,000.0,0,050505,0,W*73
$SDDPT,2.6,0.0*56
$SDMTW,19.5,C*08
$GPRMC,131602,A,3506.909,N,07701.990,W,000.0,0,050505,0,W*73
$SDDPT,2.7,0.0*56
$SDMTW,19.5,C*08
$GPRMC,131606,A,3506.906,N,07701.991,W,000.0,0,050505,0,W*73
$SDDPT,2.7,0.0*56
$SDMTW,19.4,C*08
$GPRMC,131610,A,3506.903,N,07701.991,W,000.0,0,050505,0,W*73
$SDDPT,2.8,0.0*56
$SDMTW,19.5,C*08
$GPRMC,131614,A,3506.900,N,07701.992,W,000.0,0,050505,0,W*73
$SDDPT,2.8,0.0*56
$SDMTW,19.5,C*08
$GPRMC,131618,A,3506.897,N,07701.992,W,000.0,0,050505,0,W*73
$SDDPT,2.7,0.0*56
$SDMTW,19.5,C*08
$GPRMC,131622,A,3506.895,N,07701.992,W,000.0,0,050505,0,W*73
$SDDPT,2.7,0.0*56
$SDMTW,19.5,C*08
$GPRMC,131626,A,3506.892,N,07701.993,W,000.0,0,050505,0,W*73
$SDDPT,2.7,0.0*56
$SDMTW,19.5,C*08
$GPRMC,131630,A,3506.889,N,07701.993,W,000.0,0,050505,0,W*73
$SDDPT,2.7,0.0*56
$SDMTW,19.5,C*08
$GPRMC,131634,A,3506.886,N,07701.994,W,000.0,0,050505,0,W*73
$SDDPT,2.8,0.0*56
$SDMTW,19.5,C*08
$GPRMC,131638,A,3506.884,N,07701.994,W,000.0,0,050505,0,W*73
$SDDPT,2.8,0.0*56
$SDMTW,19.5,C*08
$GPRMC,131642,A,3506.881,N,07701.994,W,000.0,0,050505,0,W*73
$SDDPT,2.8,0.0*56
$SDMTW,19.5,C*08
$GPRMC,131646,A,3506.878,N,07701.995,W,000.0,0,050505,0,W*73
$SDDPT,2.8,0.0*56
$SDMTW,19.5,C*08
$GPRMC,131650,A,3506.875,N,07701.995,W,000.0,0,050505,0,W*73
$SDDPT,3.1,0.0*56
$SDMTW,19.5,C*08
$GPRMC,131654,A,3506.872,N,07701.996,W,000.0,0,050505,0,W*73
$SDDPT,2.8,0.0*56
$SDMTW,19.5,C*08
$GPRMC,131658,A,3506.870,N,07701.996,W,000.0,0,050505,0,W*73
$SDDPT,2.9,0.0*56
$SDMTW,19.4,C*08
$GPRMC,131702,A,3506.867,N,07701.996,W,000.0,0,050505,0,W*73
$SDDPT,2.9,0.0*56
$SDMTW,19.5,C*08
$GPRMC,131706,A,3506.864,N,07701.997,W,000.0,0,050505,0,W*73
$SDDPT,2.8,0.0*56
$SDMTW,19.4,C*08
$GPRMC,131710,A,3506.861,N,07701.997,W,000.0,0,050505,0,W*73
$SDDPT,2.7,0.0*56
$SDMTW,19.4,C*08
$GPRMC,131714,A,3506.859,N,07701.998,W,000.0,0,050505,0,W*73
$SDDPT,3.0,0.0*56
$SDMTW,19.5,C*08
$GPRMC,131718,A,3506.856,N,07701.998,W,000.0,0,050505,0,W*73
$SDDPT,3.0,0.0*56
$SDMTW,19.4,C*08
$GPRMC,131722,A,3506.853,N,07701.998,W,000.0,0,050505,0,W*73
$SDDPT,3.0,0.0*56
$SDMTW,19.4,C*08
$GPRMC,131726,A,3506.850,N,07701.999,W,000.0,0,050505,0,W*73
$SDDPT,3.0,0.0*56
$SDMTW,19.5,C*08
$GPRMC,131730,A,3506.848,N,07701.999,W,000.0,0,050505,0,W*73
$SDDPT,3.0,0.0*56
$SDMTW,19.5,C*08
$GPRMC,131734,A,3506.845,N,07702.000,W,000.0,0,050505,0,W*73
$SDDPT,3.1,0.0*56
$SDMTW,19.4,C*08
$GPRMC,131738,A,3506.842,N,07702.000,W,000.0,0,050505,0,W*73
$SDDPT,3.4,0.0*56
$SDMTW,19.4,C*08
$GPRMC,131742,A,3506.839,N,07702.001,W,000.0,0,050505,0,W*73
$SDDPT,3.1,0.0*56
$SDMTW,19.4,C*08
$GPRMC,131746,A,3506.836,N,07702.001,W,000.0,0,050505,0,W*73
$SDDPT,3.0,0.0*56
$SDMTW,19.4,C*08
$GPRMC,131750,A,3506.834,N,07702.001,W,000.0,0,050505,0,W*73
$SDDPT,3.3,0.0*56
$SDMTW,19.5,C*08
$GPRMC,131754,A,3506.831,N,07702.002,W,000.0,0,050505,0,W*73
$SDDPT,3.3,0.0*56
$SDMTW,19.4,C*08
$GPRMC,131758,A,3506.828,N,07702.002,W,000.0,0,050505,0,W*73
$SDDPT,3.6,0.0*56
$SDMTW,19.4,C*08
$GPRMC,131802,A,3506.825,N,07702.003,W,000.0,0,050505,0,W*73
$SDDPT,3.5,0.0*56
$SDMTW,19.4,C*08
$GPRMC,131806,A,3506.823,N,07702.003,W,000.0,0,050505,0,W*73
$SDDPT,3.6,0.0*56
$SDMTW,19.4,C*08
$GPRMC,131810,A,3506.820,N,07702.003,W,000.0,0,050505,0,W*73
$SDDPT,3.7,0.0*56
$SDMTW,19.5,C*08
$GPRMC,131814,A,3506.817,N,07702.004,W,000.0,0,050505,0,W*73
$SDDPT,3.9,0.0*56
$SDMTW,19.4,C*08
$GPRMC,131818,A,3506.814,N,07702.004,W,000.0,0,050505,0,W*73
$SDDPT,4.0,0.0*56
$SDMTW,19.3,C*08
$GPRMC,131822,A,3506.812,N,07702.005,W,000.0,0,050505,0,W*73
$SDDPT,4.2,0.0*56
$SDMTW,19.4,C*08
$GPRMC,131826,A,3506.809,N,07702.005,W,000.0,0,050505,0,W*73
$SDDPT,4.2,0.0*56
$SDMTW,19.4,C*08
$GPRMC,131830,A,3506.806,N,07702.005,W,000.0,0,050505,0,W*73
$SDDPT,4.4,0.0*56
$SDMTW,19.4,C*08
$GPRMC,131834,A,3506.803,N,07702.006,W,000.0,0,050505,0,W*73
$SDDPT,4.8,0.0*56
$SDMTW,19.4,C*08
$GPRMC,131838,A,3506.800,N,07702.006,W,000.0,0,050505,0,W*73
$SDDPT,4.5,0.0*56
$SDMTW,19.4,C*08
$GPRMC,131842,A,3506.798,N,07702.007,W,000.0,0,050505,0,W*73
$SDDPT,4.5,0.0*56
$SDMTW,19.3,C*08
$GPRMC,131846,A,3506.795,N,07702.007,W,000.0,0,050505,0,W*73
$SDDPT,4.6,0.0*56
$SDMTW,19.4,C*08
$GPRMC,131850,A,3506.792,N,07702.007,W,000.0,0,050505,0,W*73
$SDDPT,4.6,0.0*56
$SDMTW,19.4,C*08
$GPRMC,131854,A,3506.789,N,07702.008,W,000.0,0,050505,0,W*73
$SDDPT,4.6,0.0*56
$SDMTW,19.4,C*08
$GPRMC,131858,A,3506.787,N,07702.008,W,000.0,0,050505,0,W*73
$SDDPT,5.3,0.0*56
$SDMTW,19.4,C*08
$GPRMC,131902,A,3506.784,N,07702.009,W,000.0,0,050505,0,W*73
$SDDPT,4.2,0.0*56
$SDMTW,19.4,C*08
$GPRMC,131906,A,3506.781,N,07702.009,W,000.0,0,050505,0,W*73
$SDDPT,4.7,0.0*56
$SDMTW,19.4,C*08
$GPRMC,131910,A,3506.778,N,07702.009,W,000.0,0,050505,0,W*73
$SDDPT,4.7,0.0*56
$SDMTW,19.4,C*08
$GPRMC,131914,A,3506.775,N,07702.010,W,000.0,0,050505,0,W*73
$SDDPT,4.9,0.0*56
$SDMTW,19.4,C*08
$GPRMC,131918,A,3506.773,N,07702.010,W,000.0,0,050505,0,W*73
$SDDPT,7.3,0.0*56
$SDMTW,19.4,C*08
$GPRMC,131922,A,3506.770,N,07702.011,W,000.0,0,050505,0,W*73
$SDDPT,4.5,0.0*56
$SDMTW,19.4,C*08
$GPRMC,131926,A,3506.767,N,07702.011,W,000.0,0,050505,0,W*73
$SDDPT,4.9,0.0*56
$SDMTW,19.4,C*08
$GPRMC,131930,A,3506.764,N,07702.011,W,000.0,0,050505,0,W*73
$SDDPT,4.6,0.0*56
$SDMTW,19.4,C*08
$GPRMC,131934,A,3506.762,N,07702.012,W,000.0,0,050505,0,W*73
$SDDPT,4.6,0.0*56
$SDMTW,19.4,C*08
$GPRMC,131938,A,3506.759,N,07702.012,W,000.0,0,050505,0,W*73
$SDDPT,4.6,0.0*56
$SDMTW,19.4,C*08
$GPRMC,131942,A,3506.756,N,07702.013,W,000.0,0,050505,0,W*73
$SDDPT,4.5,0.0*56
$SDMTW,19.4,C*08
$GPRMC,131946,A,3506.753,N,07702.013,W,000.0,0,050505,0,W*73
$SDDPT,4.3,0.0*56
$SDMTW,19.4,C*08
$GPRMC,131950,A,3506.750,N,07702.013,W,000.0,0,050505,0,W*73
$SDDPT,4.3,0.0*56
$SDMTW,19.4,C*08
$GPRMC,132001,A,3506.748,N,07702.014,W,000.0,0,050505,0,W*73
$SDDPT,3.9,0.0*56
$SDMTW,19.3,C*08
$GPRMC,132005,A,3506.745,N,07702.014,W,000.0,0,050505,0,W*73
$SDDPT,4.0,0.0*56
$SDMTW,19.4,C*08
$GPRMC,132009,A,3506.742,N,07702.015,W,000.0,0,050505,0,W*73
$SDDPT,4.0,0.0*56
$SDMTW,19.4,C*08
$GPRMC,132013,A,3506.739,N,07702.015,W,000.0,0,050505,0,W*73
$SDDPT,4.1,0.0*56
$SDMTW,19.4,C*08
$GPRMC,132017,A,3506.737,N,07702.015,W,000.0,0,050505,0,W*73
$SDDPT,4.2,0.0*56
$SDMTW,19.4,C*08
$GPRMC,132021,A,3506.734,N,07702.016,W,000.0,0,050505,0,W*73
$SDDPT,4.3,0.0*56
$SDMTW,19.4,C*08
$GPRMC,132025,A,3506.731,N,07702.016,W,000.0,0,050505,0,W*73
$SDDPT,4.3,0.0*56
$SDMTW,19.4,C*08
$GPRMC,132029,A,3506.728,N,07702.017,W,000.0,0,050505,0,W*73
$SDDPT,4.3,0.0*56
$SDMTW,19.4,C*08
$GPRMC,132033,A,3506.726,N,07702.017,W,000.0,0,050505,0,W*73
$SDDPT,4.3,0.0*56
$SDMTW,19.3,C*08
$GPRMC,132037,A,3506.723,N,07702.017,W,000.0,0,050505,0,W*73
$SDDPT,4.3,0.0*56
$SDMTW,19.4,C*08
$GPRMC,132041,A,3506.720,N,07702.018,W,000.0,0,050505,0,W*73
$SDDPT,4.4,0.0*56
$SDMTW,19.4,C*08
$GPRMC,132045,A,3506.717,N,07702.018,W,000.0,0,050505,0,W*73
$SDDPT,4.4,0.0*56
$SDMTW,19.4,C*08
$GPRMC,132049,A,3506.714,N,07702.019,W,000.0,0,050505,0,W*73
$SDDPT,4.5,0.0*56
$SDMTW,19.4,C*08
$GPRMC,132053,A,3506.712,N,07702.019,W,000.0,0,050505,0,W*73
$SDDPT,4.5,0.0*56
$SDMTW,19.3,C*08
$GPRMC,132057,A,3506.709,N,07702.019,W,000.0,0,050505,0,W*73
$SDDPT,4.6,0.0*56
$SDMTW,19.4,C*08
$GPRMC,132101,A,3506.706,N,07702.020,W,000.0,0,050505,0,W*73
$SDDPT,4.6,0.0*56
$SDMTW,19.4,C*08
$GPRMC,132105,A,3506.703,N,07702.020,W,000.0,0,050505,0,W*73
$SDDPT,4.6,0.0*56
$SDMTW,19.4,C*08
$GPRMC,132109,A,3506.701,N,07702.021,W,000.0,0,050505,0,W*73
$SDDPT,4.6,0.0*56
$SDMTW,19.4,C*08
$GPRMC,132113,A,3506.698,N,07702.021,W,000.0,0,050505,0,W*73
$SDDPT,4.7,0.0*56
$SDMTW,19.4,C*08
$GPRMC,132117,A,3506.695,N,07702.022,W,000.0,0,050505,0,W*73
$SDDPT,4.5,0.0*56
$SDMTW,19.4,C*08
$GPRMC,132122,A,3506.692,N,07702.022,W,000.0,0,050505,0,W*73
$SDDPT,4.6,0.0*56
$SDMTW,19.4,C*08
$GPRMC,132126,A,3506.690,N,07702.022,W,000.0,0,050505,0,W*73
$SDDPT,4.8,0.0*56
$SDMTW,19.4,C*08
$GPRMC,132130,A,3506.687,N,07702.023,W,000.0,0,050505,0,W*73
$SDDPT,4.9,0.0*56
$SDMTW,19.4,C*08
$GPRMC,132134,A,3506.684,N,07702.023,W,000.0,0,050505,0,W*73
$SDDPT,4.8,0.0*56
$SDMTW,19.4,C*08
$GPRMC,132138,A,3506.681,N,07702.024,W,000.0,0,050505,0,W*73
$SDDPT,5.0,0.0*56
$SDMTW,19.4,C*08
$GPRMC,132142,A,3506.678,N,07702.024,W,000.0,0,050505,0,W*73
$SDDPT,5.0,0.0*56
$SDMTW,19.5,C*08
$GPRMC,132147,A,3506.676,N,07702.024,W,000.0,0,050505,0,W*73
$SDDPT,5.0,0.0*56
$SDMTW,19.4,C*08
$GPRMC,132152,A,3506.673,N,07702.025,W,000.0,0,050505,0,W*73
$SDDPT,5.1,0.0*56
$SDMTW,19.4,C*08
$GPRMC,132156,A,3506.670,N,07702.025,W,000.0,0,050505,0,W*73
$SDDPT,5.0,0.0*56
$SDMTW,19.3,C*08
$GPRMC,132200,A,3506.667,N,07702.025,W,000.0,0,050505,0,W*73
$SDDPT,5.3,0.0*56
$SDMTW,19.4,C*08
$GPRMC,132204,A,3506.664,N,07702.024,W,000.0,0,050505,0,W*73
$SDDPT,5.1,0.0*56
$SDMTW,19.4,C*08
$GPRMC,132208,A,3506.662,N,07702.023,W,000.0,0,050505,0,W*73
$SDDPT,5.1,0.0*56
$SDMTW,19.4,C*08
$GPRMC,132212,A,3506.660,N,07702.021,W,000.0,0,050505,0,W*73
$SDDPT,5.1,0.0*56
$SDMTW,19.4,C*08
$GPRMC,132216,A,3506.658,N,07702.019,W,000.0,0,050505,0,W*73
$SDDPT,5.2,0.0*56
$SDMTW,19.4,C*08
$GPRMC,132220,A,3506.656,N,07702.016,W,000.0,0,050505,0,W*73
$SDDPT,5.1,0.0*56
$SDMTW,19.4,C*08
$GPRMC,132224,A,3506.654,N,07702.014,W,000.0,0,050505,0,W*73
$SDDPT,5.2,0.0*56
$SDMTW,19.4,C*08
$GPRMC,132228,A,3506.652,N,07702.012,W,000.0,0,050505,0,W*73
$SDDPT,5.1,0.0*56
$SDMTW,19.3,C*08
$GPRMC,132232,A,3506.650,N,07702.010,W,000.0,0,050505,0,W*73
$SDDPT,5.1,0.0*56
$SDMTW,19.4,C*08
$GPRMC,132236,A,3506.649,N,07702.008,W,000.0,0,050505,0,W*73
$SDDPT,5.1,0.0*56
$SDMTW,19.4,C*08
$GPRMC,132240,A,3506.647,N,07702.005,W,000.0,0,050505,0,W*73
$SDDPT,5.1,0.0*56
$SDMTW,19.4,C*08
$GPRMC,132244,A,3506.645,N,07702.004,W,000.0,0,050505,0,W*73
$SDDPT,5.0,0.0*56
$SDMTW,19.4,C*08
$GPRMC,132248,A,3506.644,N,07702.001,W,000.0,0,050505,0,W*73
$SDDPT,4.9,0.0*56
$SDMTW,19.4,C*08
$GPRMC,132252,A,3506.641,N,07702.000,W,000.0,0,050505,0,W*73
$SDDPT,4.7,0.0*56
$SDMTW,19.4,C*08
$GPRMC,132256,A,3506.640,N,07701.998,W,000.0,0,050505,0,W*73
$SDDPT,4.4,0.0*56
$SDMTW,19.4,C*08
$GPRMC,132300,A,3506.638,N,07701.995,W,000.0,0,050505,0,W*73
$SDDPT,4.2,0.0*56
$SDMTW,19.4,C*08
$GPRMC,132304,A,3506.636,N,07701.994,W,000.0,0,050505,0,W*73
$SDDPT,4.0,0.0*56
$SDMTW,19.4,C*08
$GPRMC,132308,A,3506.635,N,07701.991,W,000.0,0,050505,0,W*73
$SDDPT,3.8,0.0*56
$SDMTW,19.4,C*08
$GPRMC,132312,A,3506.633,N,07701.989,W,000.0,0,050505,0,W*73
$SDDPT,3.5,0.0*56
$SDMTW,19.4,C*08
$GPRMC,132316,A,3506.631,N,07701.988,W,000.0,0,050505,0,W*73
$SDDPT,3.4,0.0*56
$SDMTW,19.4,C*08
$GPRMC,132320,A,3506.630,N,07701.986,W,000.0,0,050505,0,W*73
$SDDPT,3.7,0.0*56
$SDMTW,19.4,C*08
$GPRMC,132324,A,3506.628,N,07701.984,W,000.0,0,050505,0,W*73
$SDDPT,3.4,0.0*56
$SDMTW,19.4,C*08
$GPRMC,132328,A,3506.626,N,07701.981,W,000.0,0,050505,0,W*73
$SDDPT,3.3,0.0*56
$SDMTW,19.4,C*08
$GPRMC,132332,A,3506.624,N,07701.979,W,000.0,0,050505,0,W*73
$SDDPT,3.3,0.0*56
$SDMTW,19.5,C*08
$GPRMC,132336,A,3506.622,N,07701.977,W,000.0,0,050505,0,W*73
$SDDPT,3.1,0.0*56
$SDMTW,19.4,C*08
$GPRMC,132340,A,3506.620,N,07701.975,W,000.0,0,050505,0,W*73
$SDDPT,3.0,0.0*56
$SDMTW,19.4,C*08
$GPRMC,132344,A,3506.618,N,07701.972,W,000.0,0,050505,0,W*73
$SDDPT,3.2,0.0*56
$SDMTW,19.4,C*08
$GPRMC,132348,A,3506.616,N,07701.970,W,000.0,0,050505,0,W*73
$SDDPT,3.2,0.0*56
$SDMTW,19.4,C*08
$GPRMC,132352,A,3506.614,N,07701.968,W,000.0,0,050505,0,W*73
$SDDPT,3.1,0.0*56
$SDMTW,19.4,C*08
$GPRMC,132357,A,3506.612,N,07701.965,W,000.0,0,050505,0,W*73
$SDDPT,3.2,0.0*56
$SDMTW,19.4,C*08
$GPRMC,132401,A,3506.609,N,07701.962,W,000.0,0,050505,0,W*73
$SDDPT,3.6,0.0*56
$SDMTW,19.4,C*08
$GPRMC,132405,A,3506.607,N,07701.961,W,000.0,0,050505,0,W*73
$SDDPT,3.1,0.0*56
$SDMTW,19.4,C*08
$GPRMC,132409,A,3506.605,N,07701.958,W,000.0,0,050505,0,W*73
$SDDPT,2.9,0.0*56
$SDMTW,19.4,C*08
$GPRMC,132413,A,3506.603,N,07701.956,W,000.0,0,050505,0,W*73
$SDDPT,2.9,0.0*56
$SDMTW,19.4,C*08
$GPRMC,132417,A,3506.601,N,07701.954,W,000.0,0,050505,0,W*73
$SDDPT,2.9,0.0*56
$SDMTW,19.4,C*08
$GPRMC,132421,A,3506.600,N,07701.952,W,000.0,0,050505,0,W*73
$SDDPT,3.1,0.0*56
$SDMTW,19.4,C*08
$GPRMC,132425,A,3506.597,N,07701.949,W,000.0,0,050505,0,W*73
$SDDPT,3.0,0.0*56
$SDMTW,19.4,C*08
$GPRMC,132429,A,3506.595,N,07701.946,W,000.0,0,050505,0,W*73
$SDDPT,3.0,0.0*56
$SDMTW,19.4,C*08
$GPRMC,132433,A,3506.593,N,07701.945,W,000.0,0,050505,0,W*73
$SDDPT,3.0,0.0*56
$SDMTW,19.4,C*08
$GPRMC,132437,A,3506.591,N,07701.943,W,000.0,0,050505,0,W*73
$SDDPT,3.0,0.0*56
$SDMTW,19.4,C*08
$GPRMC,132441,A,3506.589,N,07701.941,W,000.0,0,050505,0,W*73
$SDDPT,3.0,0.0*56
$SDMTW,19.4,C*08
$GPRMC,132445,A,3506.587,N,07701.938,W,000.0,0,050505,0,W*73
$SDDPT,3.2,0.0*56
$SDMTW,19.4,C*08
$GPRMC,132449,A,3506.585,N,07701.936,W,000.0,0,050505,0,W*73
$SDDPT,3.0,0.0*56
$SDMTW,19.4,C*08
$GPRMC,132453,A,3506.584,N,07701.933,W,000.0,0,050505,0,W*73
$SDDPT,2.8,0.0*56
$SDMTW,19.4,C*08
$GPRMC,132457,A,3506.582,N,07701.930,W,000.0,0,050505,0,W*73
$SDDPT,2.9,0.0*56
$SDMTW,19.4,C*08
$GPRMC,132501,A,3506.580,N,07701.928,W,000.0,0,050505,0,W*73
$SDDPT,2.9,0.0*56
$SDMTW,19.4,C*08
$GPRMC,132505,A,3506.578,N,07701.926,W,000.0,0,050505,0,W*73
$SDDPT,2.9,0.0*56
$SDMTW,19.4,C*08
$GPRMC,132509,A,3506.576,N,07701.923,W,000.0,0,050505,0,W*73
$SDDPT,2.9,0.0*56
$SDMTW,19.4,C*08
$GPRMC,132513,A,3506.574,N,07701.920,W,000.0,0,050505,0,W*73
$SDDPT,2.9,0.0*56
$SDMTW,19.4,C*08
$GPRMC,132517,A,3506.573,N,07701.918,W,000.0,0,050505,0,W*73
$SDDPT,2.9,0.0*56
$SDMTW,19.4,C*08
$GPRMC,132521,A,3506.570,N,07701.916,W,000.0,0,050505,0,W*73
$SDDPT,2.8,0.0*56
$SDMTW,19.3,C*08
$GPRMC,132525,A,3506.568,N,07701.914,W,000.0,0,050505,0,W*73
$SDDPT,2.8,0.0*56
$SDMTW,19.3,C*08
$GPRMC,132529,A,3506.566,N,07701.911,W,000.0,0,050505,0,W*73
$SDDPT,2.9,0.0*56
$SDMTW,19.4,C*08
$GPRMC,132533,A,3506.564,N,07701.909,W,000.0,0,050505,0,W*73
$SDDPT,2.9,0.0*56
$SDMTW,19.3,C*08
$GPRMC,132544,A,3506.559,N,07701.903,W,000.0,0,050505,0,W*73
$SDDPT,3.2,0.0*56
$SDMTW,19.4,C*08
$GPRMC,132548,A,3506.557,N,07701.901,W,000.0,0,050505,0,W*73
$SDDPT,2.9,0.0*56
$SDMTW,19.4,C*08
$GPRMC,132552,A,3506.555,N,07701.897,W,000.0,0,050505,0,W*73
$SDDPT,2.9,0.0*56
$SDMTW,19.4,C*08
$GPRMC,132556,A,3506.553,N,07701.896,W,000.0,0,050505,0,W*73
$SDDPT,2.7,0.0*56
$SDMTW,19.4,C*08
$GPRMC,132600,A,3506.550,N,07701.893,W,000.0,0,050505,0,W*73
$SDDPT,2.6,0.0*56
$SDMTW,19.5,C*08
$GPRMC,132604,A,3506.549,N,07701.890,W,000.0,0,050505,0,W*73
$SDDPT,2.5,0.0*56
$SDMTW,19.4,C*08
$GPRMC,132608,A,3506.547,N,07701.888,W,000.0,0,050505,0,W*73
$SDDPT,2.7,0.0*56
$SDMTW,19.4,C*08
$GPRMC,132612,A,3506.545,N,07701.885,W,000.0,0,050505,0,W*73
$SDDPT,2.4,0.0*56
$SDMTW,19.5,C*08
$GPRMC,132616,A,3506.544,N,07701.882,W,000.0,0,050505,0,W*73
$SDDPT,2.5,0.0*56
$SDMTW,19.4,C*08
$GPRMC,132620,A,3506.542,N,07701.880,W,000.0,0,050505,0,W*73
$SDDPT,2.6,0.0*56
$SDMTW,19.4,C*08
$GPRMC,132624,A,3506.540,N,07701.877,W,000.0,0,050505,0,W*73
$SDDPT,2.6,0.0*56
$SDMTW,19.3,C*08
$GPRMC,132628,A,3506.537,N,07701.875,W,000.0,0,050505,0,W*73
$SDDPT,2.9,0.0*56
$SDMTW,19.4,C*08
$GPRMC,132632,A,3506.536,N,07701.872,W,000.0,0,050505,0,W*73
$SDDPT,2.9,0.0*56
$SDMTW,19.4,C*08
$GPRMC,132636,A,3506.534,N,07701.869,W,000.0,0,050505,0,W*73
$SDDPT,2.9,0.0*56
$SDMTW,19.4,C*08
$GPRMC,132640,A,3506.532,N,07701.866,W,000.0,0,050505,0,W*73
$SDDPT,2.9,0.0*56
$SDMTW,19.4,C*08
$GPRMC,132644,A,3506.530,N,07701.864,W,000.0,0,050505,0,W*73
$SDDPT,2.8,0.0*56
$SDMTW,19.4,C*08
$GPRMC,132648,A,3506.528,N,07701.862,W,000.0,0,050505,0,W*73
$SDDPT,2.8,0.0*56
$SDMTW,19.4,C*08
$GPRMC,132652,A,3506.526,N,07701.859,W,000.0,0,050505,0,W*73
$SDDPT,2.9,0.0*56
$SDMTW,19.4,C*08
$GPRMC,132656,A,3506.524,N,07701.857,W,000.0,0,050505,0,W*73
$SDDPT,2.8,0.0*56
$SDMTW,19.4,C*08
$GPRMC,132700,A,3506.521,N,07701.855,W,000.0,0,050505,0,W*73
$SDDPT,2.7,0.0*56
$SDMTW,19.4,C*08
$GPRMC,132704,A,3506.519,N,07701.853,W,000.0,0,050505,0,W*73
$SDDPT,2.8,0.0*56
$SDMTW,19.3,C*08
$GPRMC,132708,A,3506.517,N,07701.850,W,000.0,0,050505,0,W*73
$SDDPT,2.8,0.0*56
$SDMTW,19.4,C*08
$GPRMC,132712,A,3506.516,N,07701.848,W,000.0,0,050505,0,W*73
$SDDPT,2.9,0.0*56
$SDMTW,19.4,C*08
$GPRMC,132716,A,3506.514,N,07701.845,W,000.0,0,050505,0,W*73
$SDDPT,2.8,0.0*56
$SDMTW,19.4,C*08
$GPRMC,132720,A,3506.512,N,07701.842,W,000.0,0,050505,0,W*73
$SDDPT,2.8,0.0*56
$SDMTW,19.4,C*08
$GPRMC,132724,A,3506.510,N,07701.840,W,000.0,0,050505,0,W*73
$SDDPT,2.8,0.0*56
$SDMTW,19.4,C*08
$GPRMC,132728,A,3506.508,N,07701.837,W,000.0,0,050505,0,W*73
$SDDPT,2.8,0.0*56
$SDMTW,19.4,C*08
$GPRMC,132732,A,3506.506,N,07701.835,W,000.0,0,050505,0,W*73
$SDDPT,2.7,0.0*56
$SDMTW,19.4,C*08
$GPRMC,132742,A,3506.501,N,07701.829,W,000.0,0,050505,0,W*73
$SDDPT,2.8,0.0*56
$SDMTW,19.4,C*08
$GPRMC,132746,A,3506.499,N,07701.826,W,000.0,0,050505,0,W*73
$SDDPT,2.8,0.0*56
$SDMTW,19.4,C*08
$GPRMC,132750,A,3506.497,N,07701.824,W,000.0,0,050505,0,W*73
$SDDPT,2.8,0.0*56
$SDMTW,19.4,C*08
$GPRMC,132754,A,3506.495,N,07701.822,W,000.0,0,050505,0,W*73
$SDDPT,2.6,0.0*56
$SDMTW,19.4,C*08
$GPRMC,132758,A,3506.493,N,07701.820,W,000.0,0,050505,0,W*73
$SDDPT,2.7,0.0*56
$SDMTW,19.3,C*08
$GPRMC,132802,A,3506.491,N,07701.817,W,000.0,0,050505,0,W*73
$SDDPT,2.8,0.0*56
$SDMTW,19.3,C*08
$GPRMC,132806,A,3506.489,N,07701.815,W,000.0,0,050505,0,W*73
$SDDPT,2.8,0.0*56
$SDMTW,19.4,C*08
$GPRMC,132810,A,3506.487,N,07701.813,W,000.0,0,050505,0,W*73
$SDDPT,2.8,0.0*56
$SDMTW,19.4,C*08
$GPRMC,132814,A,3506.485,N,07701.810,W,000.0,0,050505,0,W*73
$SDDPT,2.7,0.0*56
$SDMTW,19.4,C*08
$GPRMC,132818,A,3506.483,N,07701.808,W,000.0,0,050505,0,W*73
$SDDPT,2.9,0.0*56
$SDMTW,19.4,C*08
$GPRMC,132822,A,3506.481,N,07701.805,W,000.0,0,050505,0,W*73
$SDDPT,2.5,0.0*56
$SDMTW,19.4,C*08
$GPRMC,132826,A,3506.479,N,07701.803,W,000.0,0,050505,0,W*73
$SDDPT,2.4,0.0*56
$SDMTW,19.4,C*08
$GPRMC,132830,A,3506.477,N,07701.801,W,000.0,0,050505,0,W*73
$SDDPT,2.4,0.0*56
$SDMTW,19.4,C*08
$GPRMC,132834,A,3506.479,N,07701.800,W,000.0,0,050505,0,W*73
$SDDPT,2.5,0.0*56
$SDMTW,19.4,C*08
$GPRMC,132838,A,3506.474,N,07701.797,W,000.0,0,050505,0,W*73
$SDDPT,2.7,0.0*56
$SDMTW,19.3,C*08
$GPRMC,132842,A,3506.473,N,07701.794,W,000.0,0,050505,0,W*73
$SDDPT,2.6,0.0*56
$SDMTW,19.4,C*08
$GPRMC,132846,A,3506.472,N,07701.791,W,000.0,0,050505,0,W*73
$SDDPT,2.8,0.0*56
$SDMTW,19.3,C*08
$GPRMC,132850,A,3506.470,N,07701.788,W,000.0,0,050505,0,W*73
$SDDPT,2.8,0.0*56
$SDMTW,19.4,C*08
$GPRMC,132854,A,3506.469,N,07701.785,W,000.0,0,050505,0,W*73
$SDDPT,2.8,0.0*56
$SDMTW,19.4,C*08
$GPRMC,132858,A,3506.467,N,07701.782,W,000.0,0,050505,0,W*73
$SDDPT,2.8,0.0*56
$SDMTW,19.4,C*08
$GPRMC,132902,A,3506.466,N,07701.779,W,000.0,0,050505,0,W*73
$SDDPT,2.8,0.0*56
$SDMTW,19.4,C*08
$GPRMC,132906,A,3506.464,N,07701.776,W,000.0,0,050505,0,W*73
$SDDPT,3.0,0.0*56
$SDMTW,19.4,C*08
$GPRMC,132910,A,3506.462,N,07701.774,W,000.0,0,050505,0,W*73
$SDDPT,2.7,0.0*56
$SDMTW,19.4,C*08
$GPRMC,132914,A,3506.461,N,07701.772,W,000.0,0,050505,0,W*73
$SDDPT,2.6,0.0*56
$SDMTW,19.4,C*08
$GPRMC,132918,A,3506.461,N,07701.769,W,000.0,0,050505,0,W*73
$SDDPT,2.8,0.0*56
$SDMTW,19.3,C*08
$GPRMC,132922,A,3506.460,N,07701.767,W,000.0,0,050505,0,W*73
$SDDPT,2.8,0.0*56
$SDMTW,19.4,C*08
$GPRMC,132927,A,3506.457,N,07701.762,W,000.0,0,050505,0,W*73
$SDDPT,2.8,0.0*56
$SDMTW,19.4,C*08
$GPRMC,132931,A,3506.456,N,07701.760,W,000.0,0,050505,0,W*73
$SDDPT,2.8,0.0*56
$SDMTW,19.3,C*08
$GPRMC,132935,A,3506.454,N,07701.757,W,000.0,0,050505,0,W*73
$SDDPT,2.8,0.0*56
$SDMTW,19.3,C*08
$GPRMC,132939,A,3506.452,N,07701.753,W,000.0,0,050505,0,W*73
$SDDPT,2.8,0.0*56
$SDMTW,19.4,C*08
$GPRMC,132943,A,3506.451,N,07701.752,W,000.0,0,050505,0,W*73
$SDDPT,2.7,0.0*56
$SDMTW,19.4,C*08
$GPRMC,132947,A,3506.449,N,07701.749,W,000.0,0,050505,0,W*73
$SDDPT,2.8,0.0*56
$SDMTW,19.4,C*08
$GPRMC,132951,A,3506.447,N,07701.747,W,000.0,0,050505,0,W*73
$SDDPT,2.8,0.0*56
$SDMTW,19.4,C*08
$GPRMC,132955,A,3506.445,N,07701.744,W,000.0,0,050505,0,W*73
$SDDPT,2.8,0.0*56
$SDMTW,19.4,C*08
$GPRMC,132959,A,3506.444,N,07701.742,W,000.0,0,050505,0,W*73
$SDDPT,2.8,0.0*56
$SDMTW,19.4,C*08
$GPRMC,133003,A,3506.442,N,07701.739,W,000.0,0,050505,0,W*73
$SDDPT,2.9,0.0*56
$SDMTW,19.4,C*08
$GPRMC,133007,A,3506.440,N,07701.737,W,000.0,0,050505,0,W*73
$SDDPT,3.1,0.0*56
$SDMTW,19.4,C*08
$GPRMC,133011,A,3506.438,N,07701.734,W,000.0,0,050505,0,W*73
$SDDPT,2.8,0.0*56
$SDMTW,19.3,C*08
$GPRMC,133015,A,3506.436,N,07701.732,W,000.0,0,050505,0,W*73
$SDDPT,2.8,0.0*56
$SDMTW,19.4,C*08
$GPRMC,133019,A,3506.435,N,07701.729,W,000.0,0,050505,0,W*73
$SDDPT,2.9,0.0*56
$SDMTW,19.3,C*08
$GPRMC,133023,A,3506.433,N,07701.727,W,000.0,0,050505,0,W*73
$SDDPT,2.8,0.0*56
$SDMTW,19.4,C*08
$GPRMC,133027,A,3506.432,N,07701.724,W,000.0,0,050505,0,W*73
$SDDPT,2.9,0.0*56
$SDMTW,19.4,C*08
$GPRMC,133031,A,3506.430,N,07701.721,W,000.0,0,050505,0,W*73
$SDDPT,2.9,0.0*56
$SDMTW,19.3,C*08
$GPRMC,133035,A,3506.428,N,07701.718,W,000.0,0,050505,0,W*73
$SDDPT,3.0,0.0*56
$SDMTW,19.3,C*08
$GPRMC,133039,A,3506.427,N,07701.716,W,000.0,0,050505,0,W*73
$SDDPT,3.0,0.0*56
$SDMTW,19.4,C*08
$GPRMC,133043,A,3506.425,N,07701.713,W,000.0,0,050505,0,W*73
$SDDPT,3.0,0.0*56
$SDMTW,19.4,C*08
$GPRMC,133047,A,3506.423,N,07701.711,W,000.0,0,050505,0,W*73
$SDDPT,2.8,0.0*56
$SDMTW,19.3,C*08
$GPRMC,133051,A,3506.422,N,07701.708,W,000.0,0,050505,0,W*73
$SDDPT,3.0,0.0*56
$SDMTW,19.3,C*08
$GPRMC,133055,A,3506.420,N,07701.705,W,000.0,0,050505,0,W*73
$SDDPT,3.0,0.0*56
$SDMTW,19.3,C*08
$GPRMC,133059,A,3506.419,N,07701.702,W,000.0,0,050505,0,W*73
$SDDPT,3.3,0.0*56
$SDMTW,19.3,C*08
$GPRMC,133103,A,3506.418,N,07701.698,W,000.0,0,050505,0,W*73
$SDDPT,3.3,0.0*56
$SDMTW,19.3,C*08
$GPRMC,133107,A,3506.417,N,07701.696,W,000.0,0,050505,0,W*73
$SDDPT,3.0,0.0*56
$SDMTW,19.4,C*08
$GPRMC,133111,A,3506.416,N,07701.693,W,000.0,0,050505,0,W*73
$SDDPT,3.1,0.0*56
$SDMTW,19.4,C*08
$GPRMC,133115,A,3506.415,N,07701.689,W,000.0,0,050505,0,W*73
$SDDPT,3.1,0.0*56
$SDMTW,19.3,C*08
$GPRMC,133119,A,3506.414,N,07701.687,W,000.0,0,050505,0,W*73
$SDDPT,3.0,0.0*56
$SDMTW,19.4,C*08
$GPRMC,133123,A,3506.413,N,07701.683,W,000.0,0,050505,0,W*73
$SDDPT,3.1,0.0*56
$SDMTW,19.3,C*08
$GPRMC,133127,A,3506.411,N,07701.681,W,000.0,0,050505,0,W*73
$SDDPT,3.2,0.0*56
$SDMTW,19.4,C*08
$GPRMC,133131,A,3506.410,N,07701.678,W,000.0,0,050505,0,W*73
$SDDPT,3.2,0.0*56
$SDMTW,19.4,C*08
$GPRMC,133135,A,3506.408,N,07701.675,W,000.0,0,050505,0,W*73
$SDDPT,3.2,0.0*56
$SDMTW,19.4,C*08
$GPRMC,133139,A,3506.407,N,07701.672,W,000.0,0,050505,0,W*73
$SDDPT,3.1,0.0*56
$SDMTW,19.4,C*08
$GPRMC,133143,A,3506.405,N,07701.669,W,000.0,0,050505,0,W*73
$SDDPT,3.3,0.0*56
$SDMTW,19.4,C*08
$GPRMC,133147,A,3506.404,N,07701.666,W,000.0,0,050505,0,W*73
$SDDPT,3.3,0.0*56
$SDMTW,19.3,C*08
$GPRMC,133151,A,3506.402,N,07701.664,W,000.0,0,050505,0,W*73
$SDDPT,3.3,0.0*56
$SDMTW,19.3,C*08
$GPRMC,133155,A,3506.400,N,07701.661,W,000.0,0,050505,0,W*73
$SDDPT,3.7,0.0*56
$SDMTW,19.4,C*08
$GPRMC,133159,A,3506.398,N,07701.658,W,000.0,0,050505,0,W*73
$SDDPT,3.3,0.0*56
$SDMTW,19.4,C*08
$GPRMC,133203,A,3506.397,N,07701.655,W,000.0,0,050505,0,W*73
$SDDPT,3.4,0.0*56
$SDMTW,19.4,C*08
$GPRMC,133207,A,3506.396,N,07701.653,W,000.0,0,050505,0,W*73
$SDDPT,3.4,0.0*56
$SDMTW,19.4,C*08
$GPRMC,133211,A,3506.394,N,07701.649,W,000.0,0,050505,0,W*73
$SDDPT,3.3,0.0*56
$SDMTW,19.4,C*08
$GPRMC,133215,A,3506.392,N,07701.647,W,000.0,0,050505,0,W*73
$SDDPT,3.3,0.0*56
$SDMTW,19.4,C*08
$GPRMC,133219,A,3506.391,N,07701.644,W,000.0,0,050505,0,W*73
$SDDPT,3.4,0.0*56
$SDMTW,19.4,C*08
$GPRMC,133223,A,3506.389,N,07701.641,W,000.0,0,050505,0,W*73
$SDDPT,3.4,0.0*56
$SDMTW,19.4,C*08
$GPRMC,133227,A,3506.388,N,07701.638,W,000.0,0,050505,0,W*73
$SDDPT,3.2,0.0*56
$SDMTW,19.3,C*08
$GPRMC,133231,A,3506.386,N,07701.635,W,000.0,0,050505,0,W*73
$SDDPT,3.4,0.0*56
$SDMTW,19.3,C*08
$GPRMC,133235,A,3506.385,N,07701.632,W,000.0,0,050505,0,W*73
$SDDPT,3.4,0.0*56
$SDMTW,19.4,C*08
$GPRMC,133239,A,3506.384,N,07701.629,W,000.0,0,050505,0,W*73
$SDDPT,3.4,0.0*56
$SDMTW,19.4,C*08
$GPRMC,133243,A,3506.382,N,07701.625,W,000.0,0,050505,0,W*73
$SDDPT,3.4,0.0*56
$SDMTW,19.4,C*08
$GPRMC,133247,A,3506.381,N,07701.624,W,000.0,0,050505,0,W*73
$SDDPT,3.5,0.0*56
$SDMTW,19.3,C*08
$GPRMC,133251,A,3506.379,N,07701.621,W,000.0,0,050505,0,W*73
$SDDPT,3.4,0.0*56
$SDMTW,19.4,C*08
$GPRMC,133255,A,3506.377,N,07701.618,W,000.0,0,050505,0,W*73
$SDDPT,3.5,0.0*56
$SDMTW,19.3,C*08
$GPRMC,133259,A,3506.375,N,07701.616,W,000.0,0,050505,0,W*73
$SDDPT,3.3,0.0*56
$SDMTW,19.4,C*08
$GPRMC,133303,A,3506.373,N,07701.613,W,000.0,0,050505,0,W*73
$SDDPT,3.2,0.0*56
$SDMTW,19.4,C*08
$GPRMC,133307,A,3506.372,N,07701.609,W,000.0,0,050505,0,W*73
$SDDPT,3.4,0.0*56
$SDMTW,19.4,C*08
$GPRMC,133311,A,3506.370,N,07701.607,W,000.0,0,050505,0,W*73
$SDDPT,3.6,0.0*56
$SDMTW,19.4,C*08
$GPRMC,133315,A,3506.368,N,07701.605,W,000.0,0,050505,0,W*73
$SDDPT,3.5,0.0*56
$SDMTW,19.4,C*08
$GPRMC,133319,A,3506.367,N,07701.602,W,000.0,0,050505,0,W*73
$SDDPT,3.3,0.0*56
$SDMTW,19.4,C*08
$GPRMC,133323,A,3506.365,N,07701.599,W,000.0,0,050505,0,W*73
$SDDPT,3.4,0.0*56
$SDMTW,19.4,C*08
$GPRMC,133327,A,3506.363,N,07701.596,W,000.0,0,050505,0,W*73
$SDDPT,3.5,0.0*56
$SDMTW,19.4,C*08
$GPRMC,133331,A,3506.361,N,07701.594,W,000.0,0,050505,0,W*73
$SDDPT,3.5,0.0*56
$SDMTW,19.4,C*08
$GPRMC,133335,A,3506.359,N,07701.591,W,000.0,0,050505,0,W*73
$SDDPT,3.5,0.0*56
$SDMTW,19.4,C*08
$GPRMC,133339,A,3506.357,N,07701.589,W,000.0,0,050505,0,W*73
$SDDPT,3.5,0.0*56
$SDMTW,19.4,C*08
$GPRMC,133343,A,3506.355,N,07701.585,W,000.0,0,050505,0,W*73
$SDDPT,3.5,0.0*56
$SDMTW,19.4,C*08
$GPRMC,133347,A,3506.353,N,07701.583,W,000.0,0,050505,0,W*73
$SDDPT,3.6,0.0*56
$SDMTW,19.4,C*08
$GPRMC,133351,A,3506.351,N,07701.580,W,000.0,0,050505,0,W*73
$SDDPT,3.5,0.0*56
$SDMTW,19.3,C*08
$GPRMC,133355,A,3506.350,N,07701.577,W,000.0,0,050505,0,W*73
$SDDPT,3.6,0.0*56
$SDMTW,19.4,C*08
$GPRMC,133359,A,3506.348,N,07701.575,W,000.0,0,050505,0,W*73
$SDDPT,3.9,0.0*56
$SDMTW,19.4,C*08
$GPRMC,133403,A,3506.346,N,07701.572,W,000.0,0,050505,0,W*73
$SDDPT,3.6,0.0*56
$SDMTW,19.4,C*08
$GPRMC,133407,A,3506.344,N,07701.569,W,000.0,0,050505,0,W*73
$SDDPT,3.4,0.0*56
$SDMTW,19.4,C*08
$GPRMC,133411,A,3506.342,N,07701.567,W,000.0,0,050505,0,W*73
$SDDPT,3.6,0.0*56
$SDMTW,19.4,C*08
$GPRMC,133415,A,3506.340,N,07701.564,W,000.0,0,050505,0,W*73
$SDDPT,3.6,0.0*56
$SDMTW,19.4,C*08
$GPRMC,133419,A,3506.339,N,07701.561,W,000.0,0,050505,0,W*73
$SDDPT,3.5,0.0*56
$SDMTW,19.4,C*08
$GPRMC,133423,A,3506.337,N,07701.559,W,000.0,0,050505,0,W*73
$SDDPT,3.6,0.0*56
$SDMTW,19.4,C*08
$GPRMC,133427,A,3506.336,N,07701.556,W,000.0,0,050505,0,W*73
$SDDPT,3.7,0.0*56
$SDMTW,19.4,C*08
$GPRMC,133431,A,3506.335,N,07701.552,W,000.0,0,050505,0,W*73
$SDDPT,3.6,0.0*56
$SDMTW,19.3,C*08
$GPRMC,133435,A,3506.334,N,07701.549,W,000.0,0,050505,0,W*73
$SDDPT,3.9,0.0*56
$SDMTW,19.4,C*08
$GPRMC,133439,A,3506.333,N,07701.545,W,000.0,0,050505,0,W*73
$SDDPT,3.6,0.0*56
$SDMTW,19.4,C*08
$GPRMC,133443,A,3506.333,N,07701.542,W,000.0,0,050505,0,W*73
$SDDPT,3.9,0.0*56
$SDMTW,19.5,C*08
$GPRMC,133447,A,3506.333,N,07701.539,W,000.0,0,050505,0,W*73
$SDDPT,3.7,0.0*56
$SDMTW,19.4,C*08
$GPRMC,133451,A,3506.332,N,07701.536,W,000.0,0,050505,0,W*73
$SDDPT,3.7,0.0*56
$SDMTW,19.4,C*08
$GPRMC,133455,A,3506.332,N,07701.532,W,000.0,0,050505,0,W*73
$SDDPT,3.7,0.0*56
$SDMTW,19.4,C*08
$GPRMC,133459,A,3506.332,N,07701.528,W,000.0,0,050505,0,W*73
$SDDPT,3.7,0.0*56
$SDMTW,19.4,C*08
$GPRMC,133503,A,3506.331,N,07701.525,W,000.0,0,050505,0,W*73
$SDDPT,3.7,0.0*56
$SDMTW,19.3,C*08
$GPRMC,133507,A,3506.330,N,07701.521,W,000.0,0,050505,0,W*73
$SDDPT,3.7,0.0*56
$SDMTW,19.4,C*08
$GPRMC,133511,A,3506.329,N,07701.519,W,000.0,0,050505,0,W*73
$SDDPT,3.7,0.0*56
$SDMTW,19.4,C*08
$GPRMC,133515,A,3506.328,N,07701.514,W,000.0,0,050505,0,W*73
$SDDPT,3.8,0.0*56
$SDMTW,19.3,C*08
$GPRMC,133519,A,3506.327,N,07701.511,W,000.0,0,050505,0,W*73
$SDDPT,3.7,0.0*56
$SDMTW,19.4,C*08
$GPRMC,133523,A,3506.326,N,07701.508,W,000.0,0,050505,0,W*73
$SDDPT,3.7,0.0*56
$SDMTW,19.4,C*08
$GPRMC,133527,A,3506.325,N,07701.504,W,000.0,0,050505,0,W*73
$SDDPT,3.8,0.0*56
$SDMTW,19.4,C*08
$GPRMC,133531,A,3506.324,N,07701.501,W,000.0,0,050505,0,W*73
$SDDPT,3.8,0.0*56
$SDMTW,19.4,C*08
$GPRMC,133535,A,3506.322,N,07701.498,W,000.0,0,050505,0,W*73
$SDDPT,3.8,0.0*56
$SDMTW,19.4,C*08
$GPRMC,133539,A,3506.321,N,07701.496,W,000.0,0,050505,0,W*73
$SDDPT,5.0,0.0*56
$SDMTW,19.4,C*08
$GPRMC,133543,A,3506.319,N,07701.493,W,000.0,0,050505,0,W*73
$SDDPT,4.0,0.0*56
$SDMTW,19.3,C*08
$GPRMC,133547,A,3506.317,N,07701.490,W,000.0,0,050505,0,W*73
$SDDPT,3.9,0.0*56
$SDMTW,19.4,C*08
$GPRMC,133551,A,3506.316,N,07701.487,W,000.0,0,050505,0,W*73
$SDDPT,4.0,0.0*56
$SDMTW,19.4,C*08
$GPRMC,133555,A,3506.314,N,07701.484,W,000.0,0,050505,0,W*73
$SDDPT,3.7,0.0*56
$SDMTW,19.4,C*08
$GPRMC,133559,A,3506.312,N,07701.481,W,000.0,0,050505,0,W*73
$SDDPT,3.7,0.0*56
$SDMTW,19.4,C*08
$GPRMC,133603,A,3506.310,N,07701.478,W,000.0,0,050505,0,W*73
$SDDPT,3.7,0.0*56
$SDMTW,19.4,C*08
$GPRMC,133607,A,3506.309,N,07701.475,W,000.0,0,050505,0,W*73
$SDDPT,3.7,0.0*56
$SDMTW,19.4,C*08
$GPRMC,133611,A,3506.307,N,07701.472,W,000.0,0,050505,0,W*73
$SDDPT,3.9,0.0*56
$SDMTW,19.4,C*08
$GPRMC,133615,A,3506.305,N,07701.469,W,000.0,0,050505,0,W*73
$SDDPT,3.7,0.0*56
$SDMTW,19.4,C*08
$GPRMC,133619,A,3506.303,N,07701.466,W,000.0,0,050505,0,W*73
$SDDPT,3.6,0.0*56
$SDMTW,19.4,C*08
$GPRMC,133623,A,3506.301,N,07701.463,W,000.0,0,050505,0,W*73
$SDDPT,3.7,0.0*56
$SDMTW,19.4,C*08
$GPRMC,133627,A,3506.300,N,07701.461,W,000.0,0,050505,0,W*73
$SDDPT,3.6,0.0*56
$SDMTW,19.4,C*08
$GPRMC,133631,A,3506.297,N,07701.458,W,000.0,0,050505,0,W*73
$SDDPT,3.7,0.0*56
$SDMTW,19.4,C*08
$GPRMC,133635,A,3506.296,N,07701.455,W,000.0,0,050505,0,W*73
$SDDPT,3.6,0.0*56
$SDMTW,19.4,C*08
$GPRMC,133639,A,3506.293,N,07701.452,W,000.0,0,050505,0,W*73
$SDDPT,3.8,0.0*56
$SDMTW,19.4,C*08
$GPRMC,133643,A,3506.292,N,07701.450,W,000.0,0,050505,0,W*73
$SDDPT,3.6,0.0*56
$SDMTW,19.4,C*08
$GPRMC,133647,A,3506.289,N,07701.447,W,000.0,0,050505,0,W*73
$SDDPT,3.6,0.0*56
$SDMTW,19.4,C*08
$GPRMC,133651,A,3506.288,N,07701.445,W,000.0,0,050505,0,W*73
$SDDPT,3.5,0.0*56
$SDMTW,19.4,C*08
$GPRMC,133655,A,3506.286,N,07701.441,W,000.0,0,050505,0,W*73
$SDDPT,3.5,0.0*56
$SDMTW,19.4,C*08
$GPRMC,133659,A,3506.284,N,07701.439,W,000.0,0,050505,0,W*73
$SDDPT,3.5,0.0*56
$SDMTW,19.4,C*08
$GPRMC,133703,A,3506.281,N,07701.436,W,000.0,0,050505,0,W*73
$SDDPT,3.5,0.0*56
$SDMTW,19.4,C*08
$GPRMC,133707,A,3506.280,N,07701.433,W,000.0,0,050505,0,W*73
$SDDPT,3.4,0.0*56
$SDMTW,19.4,C*08
$GPRMC,133711,A,3506.278,N,07701.430,W,000.0,0,050505,0,W*73
$SDDPT,3.4,0.0*56
$SDMTW,19.4,C*08
$GPRMC,133715,A,3506.277,N,07701.427,W,000.0,0,050505,0,W*73
$SDDPT,3.4,0.0*56
$SDMTW,19.4,C*08
$GPRMC,133719,A,3506.276,N,07701.424,W,000.0,0,050505,0,W*73
$SDDPT,3.4,0.0*56
$SDMTW,19.4,C*08
$GPRMC,133723,A,3506.274,N,07701.421,W,000.0,0,050505,0,W*73
$SDDPT,3.3,0.0*56
$SDMTW,19.4,C*08
$GPRMC,133727,A,3506.273,N,07701.417,W,000.0,0,050505,0,W*73
$SDDPT,3.3,0.0*56
$SDMTW,19.4,C*08
$GPRMC,133731,A,3506.272,N,07701.415,W,000.0,0,050505,0,W*73
$SDDPT,3.3,0.0*56
$SDMTW,19.4,C*08
$GPRMC,133735,A,3506.271,N,07701.410,W,000.0,0,050505,0,W*73
$SDDPT,3.2,0.0*56
$SDMTW,19.3,C*08
$GPRMC,133739,A,3506.270,N,07701.407,W,000.0,0,050505,0,W*73
$SDDPT,3.1,0.0*56
$SDMTW,19.4,C*08
$GPRMC,133743,A,3506.269,N,07701.404,W,000.0,0,050505,0,W*73
$SDDPT,3.2,0.0*56
$SDMTW,19.4,C*08
$GPRMC,133747,A,3506.267,N,07701.400,W,000.0,0,050505,0,W*73
$SDDPT,3.1,0.0*56
$SDMTW,19.4,C*08
$GPRMC,133751,A,3506.266,N,07701.397,W,000.0,0,050505,0,W*73
$SDDPT,3.0,0.0*56
$SDMTW,19.4,C*08
$GPRMC,133755,A,3506.264,N,07701.394,W,000.0,0,050505,0,W*73
$SDDPT,2.7,0.0*56
$SDMTW,19.5,C*08
$GPRMC,133759,A,3506.262,N,07701.391,W,000.0,0,050505,0,W*73
$SDDPT,2.5,0.0*56
$SDMTW,19.4,C*08
$GPRMC,133803,A,3506.261,N,07701.387,W,000.0,0,050505,0,W*73
$SDDPT,2.3,0.0*56
$SDMTW,19.4,C*08
$GPRMC,133807,A,3506.259,N,07701.384,W,000.0,0,050505,0,W*73
$SDDPT,2.3,0.0*56
$SDMTW,19.4,C*08
$GPRMC,133811,A,3506.257,N,07701.381,W,000.0,0,050505,0,W*73
$SDDPT,2.1,0.0*56
$SDMTW,19.4,C*08
$GPRMC,133815,A,3506.255,N,07701.379,W,000.0,0,050505,0,W*73
$SDDPT,2.2,0.0*56
$SDMTW,19.4,C*08
$GPRMC,133819,A,3506.253,N,07701.376,W,000.0,0,050505,0,W*73
$SDDPT,2.3,0.0*56
$SDMTW,19.5,C*08
$GPRMC,133823,A,3506.251,N,07701.374,W,000.0,0,050505,0,W*73
$SDDPT,2.3,0.0*56
$SDMTW,19.4,C*08
$GPRMC,133827,A,3506.249,N,07701.371,W,000.0,0,050505,0,W*73
$SDDPT,2.2,0.0*56
$SDMTW,19.4,C*08
$GPRMC,133831,A,3506.248,N,07701.368,W,000.0,0,050505,0,W*73
$SDDPT,2.1,0.0*56
$SDMTW,19.4,C*08
$GPRMC,133835,A,3506.245,N,07701.366,W,000.0,0,050505,0,W*73
$SDDPT,1.9,0.0*56
$SDMTW,19.4,C*08
$GPRMC,133839,A,3506.244,N,07701.362,W,000.0,0,050505,0,W*73
$SDDPT,1.8,0.0*56
$SDMTW,19.4,C*08
$GPRMC,133843,A,3506.242,N,07701.359,W,000.0,0,050505,0,W*73
$SDDPT,1.8,0.0*56
$SDMTW,19.5,C*08
$GPRMC,133847,A,3506.240,N,07701.357,W,000.0,0,050505,0,W*73
$SDDPT,1.7,0.0*56
$SDMTW,19.4,C*08
$GPRMC,133851,A,3506.238,N,07701.354,W,000.0,0,050505,0,W*73
$SDDPT,1.7,0.0*56
$SDMTW,19.4,C*08
$GPRMC,133855,A,3506.237,N,07701.351,W,000.0,0,050505,0,W*73
$SDDPT,1.6,0.0*56
$SDMTW,19.5,C*08
$GPRMC,133859,A,3506.235,N,07701.348,W,000.0,0,050505,0,W*73
$SDDPT,1.5,0.0*56
$SDMTW,19.4,C*08
$GPRMC,133903,A,3506.233,N,07701.345,W,000.0,0,050505,0,W*73
$SDDPT,1.6,0.0*56
$SDMTW,19.5,C*08
$GPRMC,133907,A,3506.231,N,07701.343,W,000.0,0,050505,0,W*73
$SDDPT,1.5,0.0*56
$SDMTW,19.4,C*08
$GPRMC,133911,A,3506.229,N,07701.340,W,000.0,0,050505,0,W*73
$SDDPT,1.5,0.0*56
$SDMTW,19.4,C*08
$GPRMC,133915,A,3506.227,N,07701.337,W,000.0,0,050505,0,W*73
$SDDPT,1.5,0.0*56
$SDMTW,19.5,C*08
$GPRMC,133919,A,3506.225,N,07701.336,W,000.0,0,050505,0,W*73
$SDDPT,1.4,0.0*56
$SDMTW,19.4,C*08
$GPRMC,133923,A,3506.222,N,07701.333,W,000.0,0,050505,0,W*73
$SDDPT,1.4,0.0*56
$SDMTW,19.5,C*08
$GPRMC,133927,A,3506.220,N,07701.331,W,000.0,0,050505,0,W*73
$SDDPT,1.4,0.0*56
$SDMTW,19.5,C*08
$GPRMC,133931,A,3506.218,N,07701.329,W,000.0,0,050505,0,W*73
$SDDPT,1.4,0.0*56
$SDMTW,19.5,C*08
$GPRMC,133935,A,3506.215,N,07701.328,W,000.0,0,050505,0,W*73
$SDDPT,1.3,0.0*56
$SDMTW,19.5,C*08
$GPRMC,133939,A,3506.213,N,07701.326,W,000.0,0,050505,0,W*73
$SDDPT,1.3,0.0*56
$SDMTW,19.5,C*08
$GPRMC,133943,A,3506.211,N,07701.324,W,000.0,0,050505,0,W*73
$SDDPT,1.3,0.0*56
$SDMTW,19.5,C*08
$GPRMC,133947,A,3506.209,N,07701.321,W,000.0,0,050505,0,W*73
$SDDPT,1.5,0.0*56
$SDMTW,19.5,C*08
$GPRMC,133951,A,3506.206,N,07701.319,W,000.0,0,050505,0,W*73
$SDDPT,1.3,0.0*56
$SDMTW,19.5,C*08
$GPRMC,133955,A,3506.204,N,07701.316,W,000.0,0,050505,0,W*73
$SDDPT,1.3,0.0*56
$SDMTW,19.5,C*08
$GPRMC,133959,A,3506.202,N,07701.313,W,000.0,0,050505,0,W*73
$SDDPT,1.3,0.0*56
$SDMTW,19.5,C*08
$GPRMC,134003,A,3506.200,N,07701.311,W,000.0,0,050505,0,W*73
$SDDPT,1.3,0.0*56
$SDMTW,19.4,C*08
$GPRMC,134007,A,3506.197,N,07701.308,W,000.0,0,050505,0,W*73
$SDDPT,1.3,0.0*56
$SDMTW,19.5,C*08
$GPRMC,134011,A,3506.195,N,07701.306,W,000.0,0,050505,0,W*73
$SDDPT,1.3,0.0*56
$SDMTW,19.5,C*08
$GPRMC,134015,A,3506.193,N,07701.303,W,000.0,0,050505,0,W*73
$SDDPT,1.3,0.0*56
$SDMTW,19.5,C*08
$GPRMC,134019,A,3506.190,N,07701.300,W,000.0,0,050505,0,W*73
$SDDPT,1.3,0.0*56
$SDMTW,19.5,C*08
$GPRMC,134023,A,3506.188,N,07701.297,W,000.0,0,050505,0,W*73
$SDDPT,1.5,0.0*56
$SDMTW,19.5,C*08
$GPRMC,134027,A,3506.186,N,07701.294,W,000.0,0,050505,0,W*73
$SDDPT,1.3,0.0*56
$SDMTW,19.5,C*08
$GPRMC,134031,A,3506.184,N,07701.291,W,000.0,0,050505,0,W*73
$SDDPT,1.3,0.0*56
$SDMTW,19.5,C*08
$GPRMC,134035,A,3506.181,N,07701.288,W,000.0,0,050505,0,W*73
$SDDPT,1.4,0.0*56
$SDMTW,19.4,C*08
$GPRMC,134039,A,3506.179,N,07701.285,W,000.0,0,050505,0,W*73
$SDDPT,1.4,0.0*56
$SDMTW,19.5,C*08
$GPRMC,134043,A,3506.177,N,07701.282,W,000.0,0,050505,0,W*73
$SDDPT,1.4,0.0*56
$SDMTW,19.5,C*08
$GPRMC,134047,A,3506.174,N,07701.280,W,000.0,0,050505,0,W*73
$SDDPT,1.4,0.0*56
$SDMTW,19.5,C*08
$GPRMC,134051,A,3506.172,N,07701.277,W,000.0,0,050505,0,W*73
$SDDPT,1.4,0.0*56
$SDMTW,19.5,C*08
$GPRMC,134055,A,3506.170,N,07701.273,W,000.0,0,050505,0,W*73
$SDDPT,1.4,0.0*56
$SDMTW,19.5,C*08
$GPRMC,134059,A,3506.167,N,07701.271,W,000.0,0,050505,0,W*73
$SDDPT,1.4,0.0*56
$SDMTW,19.5,C*08
$GPRMC,134103,A,3506.165,N,07701.268,W,000.0,0,050505,0,W*73
$SDDPT,1.4,0.0*56
$SDMTW,19.5,C*08
$GPRMC,134107,A,3506.162,N,07701.265,W,000.0,0,050505,0,W*73
$SDDPT,1.4,0.0*56
$SDMTW,19.5,C*08
$GPRMC,134111,A,3506.160,N,07701.263,W,000.0,0,050505,0,W*73
$SDDPT,1.3,0.0*56
$SDMTW,19.5,C*08
$GPRMC,134115,A,3506.156,N,07701.261,W,000.0,0,050505,0,W*73
$SDDPT,1.3,0.0*56
$SDMTW,19.5,C*08
$GPRMC,134119,A,3506.153,N,07701.258,W,000.0,0,050505,0,W*73
$SDDPT,1.4,0.0*56
$SDMTW,19.5,C*08
$GPRMC,134123,A,3506.150,N,07701.256,W,000.0,0,050505,0,W*73
$SDDPT,1.4,0.0*56
$SDMTW,19.5,C*08
$GPRMC,134127,A,3506.148,N,07701.254,W,000.0,0,050505,0,W*73
$SDDPT,1.4,0.0*56
$SDMTW,19.5,C*08
$GPRMC,134131,A,3506.145,N,07701.252,W,000.0,0,050505,0,W*73
$SDDPT,1.5,0.0*56
$SDMTW,19.5,C*08
$GPRMC,134135,A,3506.142,N,07701.250,W,000.0,0,050505,0,W*73
$SDDPT,1.4,0.0*56
$SDMTW,19.5,C*08
$GPRMC,134139,A,3506.139,N,07701.248,W,000.0,0,050505,0,W*73
$SDDPT,1.5,0.0*56
$SDMTW,19.5,C*08
$GPRMC,134143,A,3506.136,N,07701.245,W,000.0,0,050505,0,W*73
$SDDPT,1.5,0.0*56
$SDMTW,19.5,C*08
$GPRMC,134147,A,3506.134,N,07701.242,W,000.0,0,050505,0,W*73
$SDDPT,1.5,0.0*56
$SDMTW,19.5,C*08
$GPRMC,134151,A,3506.131,N,07701.240,W,000.0,0,050505,0,W*73
$SDDPT,1.6,0.0*56
$SDMTW,19.5,C*08
$GPRMC,134155,A,3506.129,N,07701.237,W,000.0,0,050505,0,W*73
$SDDPT,1.4,0.0*56
$SDMTW,19.5,C*08
$GPRMC,134159,A,3506.126,N,07701.234,W,000.0,0,050505,0,W*73
$SDDPT,1.5,0.0*56
$SDMTW,19.5,C*08
$GPRMC,134203,A,3506.123,N,07701.232,W,000.0,0,050505,0,W*73
$SDDPT,1.5,0.0*56
$SDMTW,19.5,C*08
$GPRMC,134207,A,3506.120,N,07701.230,W,000.0,0,050505,0,W*73
$SDDPT,1.5,0.0*56
$SDMTW,19.5,C*08
$GPRMC,134211,A,3506.117,N,07701.228,W,000.0,0,050505,0,W*73
$SDDPT,1.5,0.0*56
$SDMTW,19.5,C*08
$GPRMC,134215,A,3506.115,N,07701.225,W,000.0,0,050505,0,W*73
$SDDPT,1.7,0.0*56
$SDMTW,19.5,C*08
$GPRMC,134219,A,3506.113,N,07701.222,W,000.0,0,050505,0,W*73
$SDDPT,1.5,0.0*56
$SDMTW,19.5,C*08
$GPRMC,134223,A,3506.110,N,07701.218,W,000.0,0,050505,0,W*73
$SDDPT,1.5,0.0*56
$SDMTW,19.5,C*08
$GPRMC,134227,A,3506.108,N,07701.216,W,000.0,0,050505,0,W*73
$SDDPT,1.5,0.0*56
$SDMTW,19.5,C*08
$GPRMC,134231,A,3506.106,N,07701.213,W,000.0,0,050505,0,W*73
$SDDPT,1.5,0.0*56
$SDMTW,19.5,C*08
$GPRMC,134235,A,3506.104,N,07701.209,W,000.0,0,050505,0,W*73
$SDDPT,1.6,0.0*56
$SDMTW,19.5,C*08
$GPRMC,134239,A,3506.102,N,07701.207,W,000.0,0,050505,0,W*73
$SDDPT,1.5,0.0*56
$SDMTW,19.5,C*08
$GPRMC,134243,A,3506.101,N,07701.203,W,000.0,0,050505,0,W*73
$SDDPT,1.5,0.0*56
$SDMTW,19.5,C*08
$GPRMC,134247,A,3506.099,N,07701.199,W,000.0,0,050505,0,W*73
$SDDPT,1.8,0.0*56
$SDMTW,19.5,C*08
$GPRMC,134251,A,3506.098,N,07701.195,W,000.0,0,050505,0,W*73
$SDDPT,1.7,0.0*56
$SDMTW,19.5,C*08
$GPRMC,134255,A,3506.097,N,07701.192,W,000.0,0,050505,0,W*73
$SDDPT,1.5,0.0*56
$SDMTW,19.5,C*08
$GPRMC,134259,A,3506.096,N,07701.187,W,000.0,0,050505,0,W*73
$SDDPT,1.5,0.0*56
$SDMTW,19.5,C*08
$GPRMC,134303,A,3506.095,N,07701.184,W,000.0,0,050505,0,W*73
$SDDPT,1.6,0.0*56
$SDMTW,19.5,C*08
$GPRMC,134307,A,3506.093,N,07701.180,W,000.0,0,050505,0,W*73
$SDDPT,1.6,0.0*56
$SDMTW,19.5,C*08
$GPRMC,134311,A,3506.092,N,07701.176,W,000.0,0,050505,0,W*73
$SDDPT,1.6,0.0*56
$SDMTW,19.5,C*08
$GPRMC,134316,A,3506.092,N,07701.171,W,000.0,0,050505,0,W*73
$SDDPT,1.6,0.0*56
$SDMTW,19.4,C*08
$GPRMC,134320,A,3506.092,N,07701.167,W,000.0,0,050505,0,W*73
$SDDPT,1.5,0.0*56
$SDMTW,19.5,C*08
$GPRMC,134324,A,3506.091,N,07701.163,W,000.0,0,050505,0,W*73
$SDDPT,1.6,0.0*56
$SDMTW,19.5,C*08
$GPRMC,134328,A,3506.091,N,07701.160,W,000.0,0,050505,0,W*73
$SDDPT,1.6,0.0*56
$SDMTW,19.5,C*08
$GPRMC,134332,A,3506.091,N,07701.155,W,000.0,0,050505,0,W*73
$SDDPT,1.6,0.0*56
$SDMTW,19.5,C*08
$GPRMC,134336,A,3506.091,N,07701.151,W,000.0,0,050505,0,W*73
$SDDPT,1.6,0.0*56
$SDMTW,19.4,C*08
$GPRMC,134340,A,3506.092,N,07701.147,W,000.0,0,050505,0,W*73
$SDDPT,1.6,0.0*56
$SDMTW,19.5,C*08
$GPRMC,134344,A,3506.092,N,07701.143,W,000.0,0,050505,0,W*73
$SDDPT,1.7,0.0*56
$SDMTW,19.6,C*08
$GPRMC,134348,A,3506.092,N,07701.139,W,000.0,0,050505,0,W*73
$SDDPT,1.5,0.0*56
$SDMTW,19.5,C*08
$GPRMC,134352,A,3506.091,N,07701.136,W,000.0,0,050505,0,W*73
$SDDPT,1.6,0.0*56
$SDMTW,19.5,C*08
$GPRMC,134356,A,3506.090,N,07701.132,W,000.0,0,050505,0,W*73
$SDDPT,1.6,0.0*56
$SDMTW,19.5,C*08
$GPRMC,134400,A,3506.090,N,07701.128,W,000.0,0,050505,0,W*73
$SDDPT,1.6,0.0*56
$SDMTW,19.5,C*08
$GPRMC,134404,A,3506.089,N,07701.124,W,000.0,0,050505,0,W*73
$SDDPT,1.8,0.0*56
$SDMTW,19.5,C*08
$GPRMC,134408,A,3506.090,N,07701.120,W,000.0,0,050505,0,W*73
$SDDPT,1.8,0.0*56
$SDMTW,19.5,C*08
$GPRMC,134412,A,3506.090,N,07701.117,W,000.0,0,050505,0,W*73
$SDDPT,1.7,0.0*56
$SDMTW,19.5,C*08
$GPRMC,134416,A,3506.092,N,07701.113,W,000.0,0,050505,0,W*73
$SDDPT,2.0,0.0*56
$SDMTW,19.5,C*08
$GPRMC,134420,A,3506.092,N,07701.109,W,000.0,0,050505,0,W*73
$SDDPT,2.1,0.0*56
$SDMTW,19.5,C*08
$GPRMC,134424,A,3506.092,N,07701.104,W,000.0,0,050505,0,W*73
$SDDPT,2.2,0.0*56
$SDMTW,19.5,C*08
$GPRMC,134428,A,3506.093,N,07701.100,W,000.0,0,050505,0,W*73
$SDDPT,2.1,0.0*56
$SDMTW,19.5,C*08
$GPRMC,134432,A,3506.093,N,07701.096,W,000.0,0,050505,0,W*73
$SDDPT,2.3,0.0*56
$SDMTW,19.5,C*08
$GPRMC,134436,A,3506.093,N,07701.092,W,000.0,0,050505,0,W*73
$SDDPT,2.3,0.0*56
$SDMTW,19.5,C*08
$GPRMC,134440,A,3506.094,N,07701.088,W,000.0,0,050505,0,W*73
$SDDPT,2.4,0.0*56
$SDMTW,19.4,C*08
$GPRMC,134444,A,3506.094,N,07701.084,W,000.0,0,050505,0,W*73
$SDDPT,2.4,0.0*56
$SDMTW,19.5,C*08
$GPRMC,134448,A,3506.094,N,07701.080,W,000.0,0,050505,0,W*73
$SDDPT,2.4,0.0*56
$SDMTW,19.5,C*08
